OSEBuildingID,DataYear,PrimaryPropertyType,Address,City,State,ZipCode,TaxParcelIdentificationNumber,Neighborhood,Latitude,Longitude,YearBuilt,NumberofBuildings,NumberofFloors,PropertyGFATotal,PropertyGFAParking,PropertyGFABuilding(s),ListOfAllPropertyUseTypes,LargestPropertyUseType,LargestPropertyUseTypeGFA,SecondLargestPropertyUseType,SecondLargestPropertyUseTypeGFA,ThirdLargestPropertyUseType,ThirdLargestPropertyUseTypeGFA,ENERGYSTARScore,SiteEUIWN(kBtu/sf),SourceEUIWN(kBtu/sf),SiteEnergyUseWN(kBtu),SteamUse(kBtu),Electricity(kBtu),NaturalGas(kBtu),DefaultData,ComplianceStatus,Outlier,GHGEmissionsIntensity,PredictedEnergyStar
1,2016,Hotel,405 Olive way,Seattle,WA,98101.0,0659000030,DOWNTOWN,47.6122,-122.33799,1927.0,1.0,12.0,88434,0.0,88434.0,Hotel,Hotel,88434.0,,,,,60.0,84.30000305,189.0,7456910.0,2003882.0,3946027.0,1276453.0,False,Compliant,,2.83,0
2,2016,Hotel,724 Pine street,Seattle,WA,98101.0,0659000220,DOWNTOWN,47.61317,-122.33393,1996.0,1.0,11.0,103566,15064.0,88502.0,"Hotel, Parking, Restaurant",Hotel,83880.0,Parking,15064.0,Restaurant,4622.0,61.0,97.90000153,179.3999939,8664479.0,0.0,3242851.0,5145082.0,False,Compliant,,2.86,0
3,2016,Hotel,1900 5th Avenue,Seattle,WA,98101.0,0659000475,DOWNTOWN,47.61393,-122.3381,1969.0,1.0,41.0,956110,196718.0,759392.0,Hotel,Hotel,756493.0,,,,,43.0,97.69999695,244.1000061,73937112.0,21566554.0,49526664.0,1493800.0,False,Compliant,,2.19,0
5,2016,Hotel,620 STEWART ST,Seattle,WA,98101.0,0659000640,DOWNTOWN,47.61412,-122.33664,1926.0,1.0,10.0,61320,0.0,61320.0,Hotel,Hotel,61320.0,,,,,56.0,113.3000031,224.0,6946800.5,2214446.25,2768924.0,1811213.0,False,Compliant,,4.67,0
8,2016,Hotel,401 LENORA ST,Seattle,WA,98121.0,0659000970,DOWNTOWN,47.61375,-122.34047,1980.0,1.0,18.0,175580,62000.0,113580.0,"Hotel, Parking, Swimming Pool",Hotel,123445.0,Parking,68009.0,Swimming Pool,0.0,75.0,118.6999969,215.6000061,14656503.0,0.0,5368607.0,8803998.0,False,Compliant,,2.88,0
9,2016,Other,810 Virginia St,Seattle,WA,98101.0,0660000560,DOWNTOWN,47.61623,-122.33657,1999.0,1.0,2.0,97288,37198.0,60090.0,Police Station,Police Station,88830.0,,,,,,141.6000061,320.5,12581712.0,0.0,7371434.0,4715182.0,False,Compliant,,3.1,0
10,2016,Hotel,1619 9th Avenue,Seattle,WA,98101.0,0660000825,DOWNTOWN,47.6139,-122.33283,1926.0,1.0,11.0,83008,0.0,83008.0,Hotel,Hotel,81352.0,,,,,27.0,74.5,154.6999969,6062767.5,0.0,2811215.0,2947580.0,False,Compliant,,2.12,0
11,2016,Other,911 Pine St,Seattle,WA,98101.0,0660000955,DOWNTOWN,47.61327,-122.33136,1926.0,1.0,8.0,102761,0.0,102761.0,Other - Entertainment/Public Assembly,Other - Entertainment/Public Assembly,102761.0,,,,,57.825,68.80000305,152.3000031,7067881.5,2276286.5,3636655.0,385189.0,False,Compliant,,2.16,1
12,2016,Hotel,612 2nd Ave,Seattle,WA,98104.0,0939000080,DOWNTOWN,47.60294,-122.33263,1904.0,1.0,15.0,163984,0.0,163984.0,Hotel,Hotel,163984.0,,,,,43.0,86.59999847,187.1999969,14194054.0,0.0,7297919.0,6425900.0,False,Compliant,,2.39,0
13,2016,Mid-Rise Multifamily,607 - 3rd Ave.,Seattle,WA,98104.0,0939000105,DOWNTOWN,47.60284,-122.33184,1910.0,1.0,6.0,63712,1496.0,62216.0,Multifamily Housing,Multifamily Housing,56132.0,,,,,1.0,85.59999847,187.3999939,4807679.5,1039735.188,2532015.0,1002026.0,False,Compliant,,2.37,0
15,2016,Hotel,1101 4th Avenue,Seattle,WA,98101.0,0942000145,DOWNTOWN,47.60695,-122.33414,1969.0,1.0,11.0,153163,19279.0,133884.0,Hotel,Hotel,133884.0,,,,,30.0,124.3000031,233.0,16646930.0,5237165.5,6187627.0,4591850.0,False,Compliant,,4.51,0
16,2016,Hotel,1112 Fourth Avenue,Seattle,WA,98101.0,0942000165,DOWNTOWN,47.60713,-122.33323,1998.0,1.0,25.0,333176,61161.0,272015.0,Hotel,Hotel,336640.0,,,,,36.0,80.40000153,199.3999939,27070114.0,5999360.5,18083049.0,2858700.0,False,Compliant,,2.22,0
17,2016,Hotel,400 Spring Street,Seattle,WA,98104.0,0942000210,DOWNTOWN,47.60699,-122.33346,1928.0,1.0,9.0,65009,0.0,65009.0,Hotel,Hotel,65009.0,,,,,48.0,97.80000305,149.8000031,6358719.5,1656352.5,1343000.0,3596705.0,False,Compliant,,5.05,0
18,2016,Hotel,1113 6th Ave,Seattle,WA,98101.0,0942000235,DOWNTOWN,47.60809,-122.33212,1980.0,1.0,33.0,315952,57600.0,258352.0,"Hotel, Parking",Hotel,295511.0,Parking,57600.0,,,58.0,76.19999695,180.6999969,22524948.0,4337738.5,13904183.0,4083440.0,False,Compliant,,2.05,0
19,2016,Hotel,1100 5th Avenue,Seattle,WA,98101.0,0942000265,DOWNTOWN,47.60755,-122.33244,1922.0,1.0,11.0,92190,25200.0,66990.0,"Hotel, Parking",Hotel,67390.0,Parking,25200.0,,,35.0,165.8999939,303.8999939,11179203.0,4870847.5,3832369.0,2046793.0,False,Compliant,,5.55,0
21,2016,Other,1000 Fourth Avenue,Seattle,WA,98154.0,0942000275,DOWNTOWN,47.60649,-122.33297,2004.0,1.0,11.0,412000,57000.0,355000.0,"Data Center, Library, Parking",Library,364913.0,Parking,49000.0,Data Center,1074.0,73.862,51.09999847,156.0,18706912.0,737559.5,17851297.0,0.0,False,Compliant,,0.44,1
22,2016,Other,909 4th Avenue,Seattle,WA,98104.0,0942000350,DOWNTOWN,47.60546,-122.33279,1930.0,1.0,6.0,103911,0.0,103911.0,"Fitness Center/Health Club/Gym, Office, Swimming Pool",Fitness Center/Health Club/Gym,90000.0,Office,40000.0,Swimming Pool,0.0,63.684,78.40000153,159.6000061,10192124.0,4592347.5,4453868.0,910180.0,False,Compliant,,4.18,1
23,2016,Hotel,515 Madison Street,Seattle,WA,98104.0,0942000430,DOWNTOWN,47.60681,-122.33078,1983.0,1.0,28.0,416281,85000.0,331281.0,"Hotel, Parking",Hotel,348329.0,Parking,85000.0,,,31.0,98.59999847,232.8000031,34351920.0,0.0,21225277.0,12331475.0,False,Compliant,,1.93,0
24,2016,Mixed Use Property,820 4th Ave.,Seattle,WA,98104.0,0942000510,DOWNTOWN,47.60515,-122.33159,1907.0,1.0,5.0,57452,0.0,57452.0,"Office, Other, Other - Lodging/Residential, Restaurant, Social/Meeting Hall",Social/Meeting Hall,16442.0,Restaurant,15505.0,Office,9741.0,34.794,137.1000061,285.0,7877219.0,1776201.875,3764791.0,2065091.0,False,Compliant,,4.75,1
25,2016,Hotel,700 3rd Ave,Seattle,WA,98104.0,0942000610,DOWNTOWN,47.60376,-122.33194,1916.0,1.0,10.0,104352,0.0,104352.0,Hotel,Hotel,104352.0,,,,,39.0,97.30000305,225.5,10154608.0,3430862.0,5908370.0,815376.0,False,Compliant,,3.35,0
26,2016,Other,516 3RD AVE,Seattle,WA,98104.0,0942000860,DOWNTOWN,47.60265,-122.33051,1916.0,1.0,10.0,540360,0.0,540360.0,Courthouse,Courthouse,537150.0,,,,,76.0,87.5,186.6999969,47023088.0,0.0,24357833.0,20626631.0,False,Compliant,,2.34,0
27,2016,Other,500 5TH AVE,Seattle,WA,98104.0,0942001010,DOWNTOWN,47.60378,-122.32842,1985.0,1.0,19.0,385274,0.0,385274.0,Other,Other,385274.0,,,,,36.877,128.6000061,232.8999939,49539212.0,0.0,18257661.0,29602150.0,False,Compliant,,4.41,1
28,2016,K-12 School,5149 S. Graham St.,Seattle,WA,98118.0,1102000138,SOUTHEAST,47.54576,-122.26853,1961.0,1.0,2.0,56228,0.0,56228.0,K-12 School,K-12 School,58916.0,,,,,95.0,29.10000038,64.59999847,1713623.5,0.0,936955.0,602523.0,True,Error - Correct Default Data,,0.69,0
29,2016,Hotel,4242 ROOSEVELT WAY NE,Seattle,WA,98105.0,1142000755,NORTHEAST,47.65959,-122.31755,2001.0,1.0,6.0,88592,30586.0,58006.0,"Hotel, Parking",Hotel,58006.0,Parking,30586.0,,,84.0,63.29999924,148.5,3673186.75,0.0,2266231.0,1397303.0,False,Compliant,,1.02,0
30,2016,University,1000 Lenora St.,Seattle,WA,98121.0,0660001420,DOWNTOWN,47.61816,-122.33629,1928.0,1.0,7.0,126593,0.0,126593.0,College/University,College/University,125000.0,,,,,57.403,97.5,180.0,12183313.0,0.0,4647474.0,6696211.0,False,Compliant,,3.07,1
31,2016,Other,1015 & 1017 Olive Way,Seattle,WA,98101.0,0660001725,DOWNTOWN,47.615,-122.33081,1930.0,1.0,2.0,67224,0.0,67224.0,Automobile Dealership,Automobile Dealership,67224.0,,,,,,19.5,61.20000076,1310236.625,0.0,1310236.0,0.0,False,Compliant,,0.14,0
32,2016,Hotel,1011 Pike ST,Seattle,WA,98101.0,0660001832,EAST,47.61301,-122.32929,1991.0,1.0,8.0,158676,30301.0,128375.0,"Hotel, Parking, Retail Store, Swimming Pool",Hotel,112676.0,Parking,42000.0,Retail Store,4500.0,90.836,46.29999924,58.79999924,5424942.0,0.0,572307.0,4755745.0,False,Compliant,,1.62,1
33,2016,Hotel,1800 Yale Ave,Seattle,WA,98101.0,0660002680,DOWNTOWN,47.61784,-122.32966,2001.0,1.0,10.0,171866,38281.0,133585.0,Hotel,Hotel,128909.0,,,,,57.0,86.69999695,180.6000061,11171407.0,0.0,5610706.0,5451210.0,False,Compliant,,1.91,0
34,2016,K-12 School,301/300 21st Ave. E.,Seattle,WA,98112.0,0688000090,Central,47.62266,-122.30547,1955.0,1.0,1.0,126351,0.0,126351.0,K-12 School,K-12 School,126351.0,,,,,,0.0,0.0,0.0,0.0,0.0,0.0,False,Missing Data,,0.0,0
35,2016,Hotel,2200 5th ave,Seattle,WA,98121.0,0697000170,DOWNTOWN,47.61558,-122.34186,1978.0,1.0,5.0,68410,16200.0,52210.0,Hotel,Hotel,47994.0,,,,,57.0,95.0,206.3000031,4557974.0,0.0,2346349.0,2110365.0,False,Compliant,,1.88,0
36,2016,K-12 School,11051 34th Ave. N.E.,Seattle,WA,98125.0,0752000170,NORTH,47.70994,-122.29301,1949.0,1.0,2.0,160645,0.0,160645.0,K-12 School,K-12 School,164229.0,,,,,75.0,47.5,75.69999695,7800349.5,0.0,1947601.0,4831572.0,True,Error - Correct Default Data,,1.68,0
37,2016,K-12 School,201 Garfield St.,Seattle,WA,98109.0,0809000005,MAGNOLIA / QUEEN ANNE,47.6329,-122.35172,1989.0,1.0,2.0,51582,0.0,51582.0,K-12 School,K-12 School,55166.0,,,,,,0.0,0.0,0.0,0.0,1496816.0,0.0,False,Missing Data,,0.2,0
38,2016,Small- and Mid-Sized Office,4649 Sunnyside Ave. N.,Seattle,WA,98070.0,0825049008,LAKE UNION,47.6641,-122.33118,1906.0,1.0,3.0,87262,0.0,87262.0,"K-12 School, Multifamily Housing, Office, Other - Entertainment/Public Assembly",Office,40943.0,K-12 School,18153.0,Other - Entertainment/Public Assembly,4307.0,63.174,69.80000305,115.9000015,4703690.0,0.0,1352843.0,2793077.0,False,Compliant,,1.81,1
40,2016,Hotel,5036 25th Ave NE,Seattle,WA,98105.0,0925049117,NORTHEAST,47.66583,-122.29965,1994.0,1.0,4.0,81871,0.0,81871.0,Hotel,Hotel,81871.0,,,,,29.0,82.19999695,164.8999939,6731281.5,0.0,3016399.0,3652169.0,False,Compliant,,2.63,0
41,2016,Self-Storage Facility,2746 Ne 45th St Suite 100,Seattle,WA,98105.0,0925049330,NORTHEAST,47.66172,-122.29598,1955.0,1.0,2.0,110356,0.0,110356.0,Self-Storage Facility,Self-Storage Facility,26225.0,,,,,77.054,12.39999962,35.5,326223.0938,0.0,281265.0,37100.0,False,Compliant,,0.04,1
43,2016,Mixed Use Property,7755 E MARGINAL WAY S,Seattle,WA,98108.0,0022000005,GREATER DUWAMISH,47.53493,-122.31788,1992.0,1.0,3.0,494835,0.0,494835.0,"Energy/Power Station, Laboratory, Manufacturing/Industrial Plant, Non-Refrigerated Warehouse, Office",Office,757027.0,Laboratory,639931.0,Non-Refrigerated Warehouse,459748.0,8.0,233.1000061,400.2999878,471613856.0,0.0,150476283.0,297909000.0,False,Compliant,,34.09,0
46,2016,Warehouse,3301 S NORFOLK ST,Seattle,WA,98118.0,0323049024,GREATER DUWAMISH,47.51138,-122.28875,1961.0,3.0,2.0,714095,0.0,714095.0,"Non-Refrigerated Warehouse, Office, Refrigerated Warehouse",Non-Refrigerated Warehouse,616000.0,Refrigerated Warehouse,276000.0,Office,71000.0,52.692,45.79999924,143.8000031,44110016.0,0.0,44731153.0,0.0,False,Compliant,,0.44,1
50,2016,K-12 School,4000 27th Ave. W.,Seattle,WA,98199.0,0369000400,MAGNOLIA / QUEEN ANNE,47.65671,-122.39047,1990.0,1.0,2.0,54986,0.0,54986.0,K-12 School,K-12 School,54986.0,,,,,97.0,32.79999924,83.19999695,1802471.375,0.0,1217589.0,432690.0,False,Compliant,,0.57,0
51,2016,K-12 School,3003 N.E. 75th St.,Seattle,WA,98115.0,0425049022,NORTHEAST,47.68252,-122.29498,1950.0,1.0,2.0,175565,0.0,175565.0,K-12 School,K-12 School,182861.0,,,,,88.0,40.09999847,60.40000153,7329817.5,0.0,1599684.0,4799443.0,True,Error - Correct Default Data,,1.52,0
52,2016,Small- and Mid-Sized Office,5305 Shilshole Ave NW,Seattle,WA,98107.0,0467000429,BALLARD,47.66587,-122.38476,1961.0,1.0,2.0,94900,0.0,94900.0,"Non-Refrigerated Warehouse, Office",Office,55586.0,Non-Refrigerated Warehouse,39314.0,,,57.0,68.90000153,165.8999939,6536359.5,0.0,4291585.0,1894876.0,False,Compliant,,1.38,0
53,2016,Small- and Mid-Sized Office,2524 16th Ave S,Seattle,WA,98144.0,0570000340,GREATER DUWAMISH,47.58034,-122.31132,1900.0,1.0,2.0,52554,0.0,52554.0,"Office, Other - Education",Office,51029.0,Other - Education,7849.0,,,83.0,53.5,112.3000031,3150635.5,0.0,1579749.0,1371582.0,False,Compliant,,1.6,0
54,2016,K-12 School,8200 Wallingford Ave. N,Seattle,WA,98103.0,0625049002,NORTHWEST,47.68891,-122.33553,1954.0,1.0,3.0,175015,0.0,175015.0,K-12 School,K-12 School,175015.0,,,,,95.0,45.09999847,80.40000153,7886505.5,0.0,2679739.0,4315001.0,False,Compliant,,1.42,0
55,2016,Self-Storage Facility,11 Vine Street,Seattle,WA,98121.0,0653000225,DOWNTOWN,47.61351,-122.35129,1911.0,1.0,3.0,70586,0.0,70586.0,"Office, Self-Storage Facility, Vocational School",Self-Storage Facility,38439.0,Vocational School,28197.0,Office,3859.0,81.869,33.09999847,79.19999695,2331573.25,0.0,1500229.0,658400.0,False,Compliant,,0.64,1
56,2016,Hotel,1301 Sixth Ave,Seattle,WA,98101.0,1975700040,DOWNTOWN,47.60946,-122.33337,1969.0,1.0,24.0,332210,205970.0,126240.0,Hotel,Hotel,348630.0,,,,,67.0,46.40000153,121.8000031,16163194.0,0.0,12204406.0,3958787.0,False,Compliant,,0.89,0
57,2016,Large Office,413 Pine Street,Seattle,WA,98101.0,1975700200,DOWNTOWN,47.6113,-122.33659,1973.0,1.0,5.0,168115,0.0,168115.0,"Data Center, Office, Retail Store",Office,103362.0,Retail Store,65676.0,Data Center,493.0,78.0,56.29999924,176.6000061,9536161.0,0.0,9536160.0,0.0,False,Compliant,,0.4,0
58,2016,Other,1525 4th Ave,Seattle,WA,98101.0,1975700365,DOWNTOWN,47.61076,-122.33765,1920.0,1.0,2.0,57428,0.0,57428.0,"Other - Mall, Personal Services (Health/Beauty, Dry Cleaning, etc)",Other - Mall,51747.0,"Personal Services (Health/Beauty, Dry Cleaning, etc)",5681.0,,,89.515,21.60000038,48.40000153,1239429.75,0.0,714939.0,532423.0,False,Compliant,,0.58,1
59,2016,Small- and Mid-Sized Office,1520 3rd Ave,Seattle,WA,98101.0,1975700380,DOWNTOWN,47.61048,-122.33794,1910.0,1.0,8.0,59400,0.0,59400.0,"Office, Retail Store",Office,34947.0,Retail Store,4993.0,,,14.0,88.30000305,412.2000122,5242479.5,0.0,5071973.0,0.0,False,Compliant,,0.6,0
60,2016,Mixed Use Property,1401 3rd Avenue,Seattle,WA,98101.0,1975700525,DOWNTOWN,47.60886,-122.33744,1926.0,1.0,2.0,52549,0.0,52549.0,"Office, Other - Entertainment/Public Assembly, Restaurant",Other - Entertainment/Public Assembly,23500.0,Restaurant,23500.0,Office,5459.0,,299.0,495.5,15683742.0,0.0,4632459.0,10393737.0,False,Compliant,,11.12,0
62,2016,Hotel,1531 7th Ave,Seattle,WA,98101.0,1976700010,DOWNTOWN,47.61233,-122.33432,1930.0,1.0,20.0,98634,10043.0,88591.0,"Hotel, Parking, Restaurant",Hotel,83591.0,Parking,10043.0,Restaurant,5000.0,71.0,57.29999924,167.0,5078816.0,0.0,4290059.0,551288.0,False,Compliant,,0.6,0
63,2016,Hotel,1400 6th Avenue,Seattle,WA,98101.0,1976700095,DOWNTOWN,47.61087,-122.33339,1982.0,1.0,34.0,994212,146694.0,847518.0,"Hotel, Parking, Swimming Pool",Hotel,994212.0,Parking,117668.0,Swimming Pool,0.0,63.0,82.80000305,184.5,82318072.0,11598686.0,45545529.0,23324992.0,False,Compliant,,2.47,0
65,2016,Hotel,86 Pine St,Seattle,WA,98101.0,1977200050,DOWNTOWN,47.60997,-122.34138,1985.0,1.0,7.0,71150,0.0,71150.0,"Hotel, Parking, Restaurant, Retail Store",Hotel,41340.0,Parking,13730.0,Retail Store,9604.0,98.0,93.09999847,215.8999939,5348309.0,0.0,3243900.0,2104408.0,False,Compliant,,1.89,0
66,2016,Hotel,1926 2nd Ave,Seattle,WA,98101.0,1977201035,DOWNTOWN,47.61155,-122.34114,1908.0,1.0,7.0,122810,0.0,122810.0,"Hotel, Other - Entertainment/Public Assembly, Retail Store",Hotel,88360.0,Other - Entertainment/Public Assembly,26450.0,Retail Store,8000.0,99.0,49.59999847,74.09999847,6088417.5,0.0,1293561.0,4107716.0,False,Compliant,,1.85,0
67,2016,Hotel,618 JOHN ST,Seattle,WA,98109.0,1991200730,LAKE UNION,47.61986,-122.34413,1959.0,1.0,5.0,113173,42546.0,70627.0,"Hotel, Parking",Hotel,70627.0,Parking,42546.0,,,86.0,76.90000153,172.1000061,5428403.5,0.0,2944680.0,2339663.0,False,Compliant,,1.28,0
68,2016,Hotel,211 Dexter Ave N,Seattle,WA,98109.0,1991200935,LAKE UNION,47.62001,-122.34274,2000.0,1.0,7.0,150453,34735.0,115718.0,Hotel,Hotel,107547.0,Restaurant,3000.0,,,84.0,61.79999924,129.8000031,6835263.5,0.0,3396109.0,3319078.0,False,Compliant,,1.33,0
69,2016,Hotel,226 Aurora Ave N,Seattle,WA,98109.0,1991200940,LAKE UNION,47.62025,-122.34314,1997.0,1.0,6.0,116300,28200.0,88100.0,Hotel,Hotel,88490.0,Parking,28300.0,,,80.0,67.09999847,147.1000061,5941927.0,0.0,3188457.0,2639138.0,False,Compliant,,1.4,0
70,2016,Hotel,206 Western Ave West,Seattle,WA,98119.0,1992200235,MAGNOLIA / QUEEN ANNE,47.62023,-122.35951,1998.0,1.0,6.0,155602,36744.0,118858.0,Hotel,Hotel,155602.0,,,,,81.0,44.0,107.5999985,6849826.5,0.0,4558937.0,2277962.0,False,Compliant,,0.98,0
73,2016,K-12 School,1617 Interlaken Drive East,Seattle,WA,98136.0,2125049015,EAST,47.63442,-122.30793,1911.0,1.0,3.0,56072,0.0,56072.0,K-12 School,K-12 School,56072.0,,,,,76.0,67.80000305,92.69999695,3800842.5,0.0,551867.0,2682920.0,False,Compliant,,2.61,0
77,2016,Hotel,601 Roy St,Seattle,WA,98109.0,2249000170,MAGNOLIA / QUEEN ANNE,47.62519,-122.34456,1999.0,1.0,4.0,122942,44891.0,78051.0,"Hotel, Parking",Hotel,78051.0,Parking,44891.0,,,94.0,69.0,138.6999969,5387530.0,0.0,2423730.0,2913604.0,False,Compliant,,1.4,0
82,2016,Small- and Mid-Sized Office,1700 E. Cherry St,Seattle,WA,98122.0,2254501944,CENTRAL,47.60823,-122.30956,1962.0,1.0,2.0,54984,0.0,54984.0,Office,Office,54984.0,,,,,71.0,66.0,144.5,3630147.25,0.0,1978230.0,1396981.0,False,Compliant,,1.6,0
84,2016,Senior Care Community,4831 35th Ave SW,Seattle,WA,98126.0,2324039001,SOUTHWEST,47.55837,-122.37751,1922.0,1.0,5.0,217603,0.0,217603.0,"Parking, Senior Care Community",Senior Care Community,296313.0,Parking,0.0,,,54.0,153.6999969,244.8000031,45547252.0,0.0,11824772.0,30967300.0,False,Compliant,,7.94,0
85,2016,Senior Care Community,13023 Greenwood Ave. N,Seattle,WA,98133.0,2426039059,NORTHWEST,47.72426,-122.35599,1970.0,1.0,2.0,93397,0.0,93397.0,Senior Care Community,Senior Care Community,93397.0,,,,,1.0,181.6000061,320.0,16959754.0,0.0,5679498.0,10723064.0,False,Compliant,,6.52,0
86,2016,Hotel,207 Pontius Ave N,Seattle,WA,98109.0,2467400430,LAKE UNION,47.61988,-122.33211,2008.0,1.0,6.0,84103,20732.0,63371.0,"Hotel, Parking",Hotel,63371.0,Parking,20732.0,,,74.0,59.79999924,156.6999969,3787499.0,0.0,2812688.0,893412.0,False,Compliant,,0.8,0
87,2016,K-12 School,3701 S.W. 104th St.,Seattle,WA,98146.0,2518400005,SOUTHWEST,47.5097,-122.37759,1948.0,1.0,2.0,53352,0.0,53352.0,K-12 School,K-12 School,65568.0,,,,,,0.0,0.0,0.0,0.0,600813.0,0.0,False,Missing Data,,0.08,0
89,2016,Medical Office,1200 Harvard Ave,Seattle,WA,98122.0,1978201270,EAST,47.61244,-122.3214,1965.0,0.0,3.0,179014,0.0,179014.0,Medical Office,Medical Office,179014.0,,,,,48.0,92.30000305,210.3000031,16527711.0,0.0,9886484.0,6814570.0,False,Compliant,,2.41,0
95,2016,Hotel,900 Madison St.,Seattle,WA,98104.0,1979200270,EAST,47.60898,-122.32693,1908.0,1.0,7.0,76631,0.0,76631.0,Hotel,Hotel,76631.0,,,,,71.0,94.59999847,171.6999969,7250730.5,0.0,2660742.0,4598016.0,False,Compliant,,3.43,0
96,2016,Mixed Use Property,921 Terry Ave.,Seattle,WA,98104.0,1979200290,EAST,47.60845,-122.32637,1983.0,1.0,6.0,99780,9341.0,90439.0,"Data Center, Medical Office, Non-Refrigerated Warehouse, Office, Other, Parking",Medical Office,40174.0,Parking,20868.0,Office,17020.0,12.743,207.3000031,504.2999878,15684371.0,5327802.5,10145313.0,0.0,False,Compliant,,4.83,1
98,2016,Retail Store,400 Westlake Ave N,Seattle,WA,98109.0,1983200230,LAKE UNION,47.62237,-122.33805,1929.0,1.0,2.0,58320,0.0,58320.0,Retail Store,Retail Store,72072.0,,,,,96.0,17.20000076,28.79999924,1243027.75,0.0,361803.0,687945.0,False,Compliant,,0.67,0
100,2016,Large Office,551 Boren Ave. North,Seattle,WA,98109.0,1983200325,LAKE UNION,47.62424,-122.33646,2010.0,1.0,5.0,316306,0.0,316306.0,"Office, Other, Parking, Retail Store",Office,261826.0,Parking,150726.0,Other,15139.0,96.0,48.40000153,144.3999939,13909270.0,0.0,12871091.0,924861.0,False,Compliant,,0.44,0
102,2016,Hotel,800 Fairview Ave. N,Seattle,WA,98109.0,1984200065,LAKE UNION,47.62642,-122.33325,1990.0,1.0,7.0,282863,44766.0,238097.0,"Hotel, Parking",Hotel,235788.0,Parking,51537.0,,,37.0,85.59999847,189.1999969,20194606.0,0.0,10980652.0,8478651.0,False,Compliant,,1.86,0
103,2016,Other,334 1st Ave. N,Seattle,WA,98109.0,1985200003,MAGNOLIA / QUEEN ANNE,47.62208,-122.35398,1962.0,1.0,1.0,389000,0.0,389000.0,Other,Other,368000.0,,,,,63.76,64.5,152.1000061,23736924.0,6093150.0,14419146.0,688680.0,False,Compliant,,1.56,1
104,2016,Other,151 Mercer St.,Seattle,WA,98109.0,1985200003,MAGNOLIA / QUEEN ANNE,47.62208,-122.35398,1962.0,1.0,1.0,91213,0.0,91213.0,Other,Other,65000.0,,,,,34.48,125.9000015,265.3999939,8181881.0,4120130.0,3754115.0,0.0,False,Compliant,,3.77,1
106,2016,Other,305 Harrison St.,Seattle,WA,98109.0,1985200305,MAGNOLIA / QUEEN ANNE,47.62208,-122.35398,1938.0,1.0,5.0,396085,0.0,396085.0,Other,Other,278500.0,,,,,58.615,76.30000305,140.0,21257836.0,9763690.0,7252325.0,0.0,False,Compliant,,2.03,1
107,2016,Large Office,333 Boren Ave. N.,Seattle,WA,98109.0,1986200410,LAKE UNION,47.62112,-122.33629,2010.0,1.0,12.0,571329,0.0,571329.0,"Office, Other, Parking",Office,598801.0,Parking,310699.0,Other,26203.0,91.0,64.19999695,176.3999939,40153432.0,0.0,32206199.0,7399685.0,False,Compliant,,1.08,0
110,2016,Other,225 Mercer St.,Seattle,WA,98109.0,1988200440,MAGNOLIA / QUEEN ANNE,47.62395,-122.35077,1962.0,1.0,2.0,52000,0.0,52000.0,Other,Other,52000.0,,,,,67.117,51.59999847,109.5,2682242.75,1202380.0,1293349.0,0.0,False,Compliant,,1.96,1
111,2016,Other,363 Mercer St.,Seattle,WA,98109.0,1988200700,MAGNOLIA / QUEEN ANNE,47.62395,-122.35077,1928.0,1.0,1.0,60696,0.0,60696.0,Other,Other,108000.0,,,,,83.73,8.100000381,25.5,875943.3125,0.0,875943.0,0.0,False,Compliant,,0.1,1
112,2016,Other,321 Mercer St.,Seattle,WA,98109.0,1988200700,MAGNOLIA / QUEEN ANNE,47.62395,-122.35143,1928.0,1.0,2.0,262048,0.0,262048.0,Other,Other,296000.0,,,,,60.717,70.30000305,175.1999969,20823520.0,5137220.0,13512686.0,0.0,False,Compliant,,1.87,1
113,2016,Small- and Mid-Sized Office,401 Mercer St,Seattle,WA,98109.0,1988200705,MAGNOLIA / QUEEN ANNE,47.62391,-122.34837,1986.0,0.0,2.0,66240,2352.0,63888.0,"Data Center, Distribution Center, Office, Parking, Retail Store",Office,45900.0,Data Center,5181.0,Distribution Center,4551.0,39.24,75.40000153,236.6000061,4192107.75,0.0,4166305.0,0.0,False,Compliant,,0.44,1
114,2016,Large Office,500 5th Ave N,Seattle,WA,98109.0,1988201155,MAGNOLIA / QUEEN ANNE,47.62419,-122.34443,2010.0,1.0,6.0,920598,303707.0,616891.0,"Office, Other, Parking",Office,729584.0,Parking,185014.0,Other,6000.0,93.0,51.79999924,131.6000061,38105108.0,0.0,27597261.0,9069780.0,False,Compliant,,0.73,0
115,2016,Small- and Mid-Sized Office,221 1st Ave. W,Seattle,WA,98033.0,1989200850,MAGNOLIA / QUEEN ANNE,47.62053,-122.35842,1970.0,1.0,4.0,76213,25930.0,50283.0,"Office, Other, Parking",Office,48546.0,Parking,21454.0,Other,2406.0,68.0,71.59999847,196.0,3647345.75,0.0,2944692.0,531520.0,False,Compliant,,0.64,0
116,2016,Hotel,425 queen anne ave N.,Seattle,WA,98109.0,1989201125,MAGNOLIA / QUEEN ANNE,47.62291,-122.35708,2002.0,1.0,6.0,96910,36934.0,59976.0,"Hotel, Parking",Hotel,59976.0,Parking,36934.0,,,56.0,87.90000153,188.3999939,5274523.0,0.0,2637011.0,2518558.0,False,Compliant,,1.57,0
117,2016,Hotel,4140 ROOSEVELT WAY NE,Seattle,WA,98105.0,1142001871,NORTHEAST,47.65772,-122.31756,1962.0,2.0,4.0,50017,0.0,50017.0,"Hotel, Swimming Pool",Hotel,50017.0,Swimming Pool,0.0,,,53.0,110.5,205.8000031,5528580.5,0.0,2128306.0,3320669.0,False,Compliant,,3.82,0
118,2016,K-12 School,1901 SW Genesee St.,Seattle,WA,98106.0,1324039116,DELRIDGE,47.5636,-122.358,1999.0,1.0,3.0,74468,0.0,74468.0,K-12 School,K-12 School,75364.0,,,,,,0.0,0.0,0.0,0.0,1698176.0,0.0,False,Missing Data,,0.16,0
119,2016,K-12 School,700 18th Ave. E.,Seattle,WA,98112.0,1336800825,EAST,47.62548,-122.30828,1923.0,1.0,3.0,67743,0.0,67743.0,K-12 School,K-12 School,67743.0,,,,,34.0,44.79999924,89.30000305,3036464.0,0.0,1337786.0,1309093.0,False,Compliant,,1.16,0
120,2016,K-12 School,728 21st Ave East,Seattle,WA,98112.0,1338800660,EAST,47.62644,-122.30429,1908.0,1.0,6.0,194104,0.0,194104.0,K-12 School,K-12 School,194104.0,,,,,100.0,37.09999847,60.09999847,7204080.0,0.0,1887893.0,4331949.0,False,Compliant,,1.25,0
121,2016,Small- and Mid-Sized Office,2100 24th Ave S,Seattle,WA,98144.0,1498303116,SOUTHEAST,47.58408,-122.30125,2003.0,1.0,3.0,99433,35752.0,63681.0,"Office, Parking",Office,63681.0,Parking,35752.0,,,63.0,78.19999695,245.6000061,4980737.5,0.0,4897760.0,0.0,False,Compliant,,0.34,0
122,2016,K-12 School,3301 S. Horton St.,Seattle,WA,98144.0,1524049002,SOUTHEAST,47.57324,-122.29058,1991.0,1.0,2.0,58933,0.0,58933.0,K-12 School,K-12 School,60725.0,,,,,,0.0,0.0,0.0,0.0,2347138.0,0.0,False,Missing Data,,0.28,0
125,2016,K-12 School,1600 Columbian Way S.,Seattle,WA,98108.0,1624049214,GREATER DUWAMISH,47.56413,-122.31208,1957.0,1.0,1.0,130862,0.0,130862.0,K-12 School,K-12 School,134446.0,,,,,61.0,54.29999924,93.5,7300977.5,0.0,2262820.0,4193207.0,True,Error - Correct Default Data,,1.82,0
127,2016,K-12 School,5215 46th Ave. S.,Seattle,WA,98118.0,1704900242,SOUTHEAST,47.55478,-122.27596,1989.0,1.0,3.0,59955,0.0,59955.0,K-12 School,K-12 School,59955.0,,,,,93.0,29.20000076,83.0,1749171.25,0.0,1436416.0,196983.0,True,Error - Correct Default Data,,0.34,0
130,2016,K-12 School,1915 1st Ave. W.,Seattle,WA,98119.0,1794501220,MAGNOLIA / QUEEN ANNE,47.63683,-122.35896,1964.0,1.0,2.0,93218,0.0,93218.0,K-12 School,K-12 School,93218.0,,,,,86.0,34.5,70.80000305,3216155.0,0.0,1486758.0,1400634.0,True,Error - Correct Default Data,,0.91,0
131,2016,Other,1208 NE 64th st,Seattle,WA,98115.0,1797500625,NORTHEAST,47.67524,-122.31534,1941.0,1.0,4.0,56521,0.0,56521.0,Other,Other,49000.0,,,,,13.64,129.8999939,408.0,6367210.0,0.0,6357631.0,0.0,False,Compliant,,0.78,1
132,2016,Other,6417 Roosevelt Way NE # 18-28,Seattle,WA,98115.0,1797500715,NORTHEAST,47.67559,-122.31769,1929.0,1.0,2.0,206934,0.0,206934.0,"Other, Parking",Other,119146.0,Parking,0.0,,,74.115,36.79999924,72.90000153,4384625.5,0.0,2001103.0,2252474.0,False,Compliant,,0.65,1
136,2016,Hotel,14115 Aurora Ave N,Seattle,WA,98133.0,1926049012,NORTHWEST,47.73141,-122.3458,2001.0,1.0,4.0,51390,0.0,51390.0,"Hotel, Parking",Hotel,51390.0,Parking,0.0,,,89.0,70.40000153,130.8999939,3616214.0,0.0,1398289.0,2213249.0,False,Compliant,,2.48,0
137,2016,K-12 School,13052 Greenwood Ave. N.,Seattle,WA,98133.0,1926049025,NORTHWEST,47.72463,-122.35315,1963.0,1.0,2.0,131013,0.0,131013.0,K-12 School,K-12 School,131909.0,,,,,88.0,32.5,62.90000153,4290831.5,0.0,1775488.0,2119097.0,True,Error - Correct Default Data,,0.95,0
138,2016,K-12 School,1819 N. 135th St.,Seattle,WA,98133.0,1926049321,NORTHWEST,47.7257,-122.33684,1959.0,1.0,1.0,245587,0.0,245587.0,K-12 School,K-12 School,245587.0,,,,,92.0,52.40000153,89.09999847,12870916.0,0.0,3926011.0,7839670.0,False,Compliant,,1.81,0
139,2016,Hotel,13300 Stone Avenue N,Seattle,WA,98133.0,1926049434,NORTHWEST,47.72551,-122.3423,2002.0,1.0,3.0,69138,0.0,69138.0,Hotel,Hotel,70609.0,,,,,78.0,47.09999847,104.6999969,3323400.5,0.0,1802889.0,1439568.0,False,Compliant,,1.29,0
140,2016,K-12 School,3921 Linden Ave. N.,Seattle,WA,98103.0,1931301145,LAKE UNION,47.65464,-122.34912,1991.0,1.0,3.0,66588,0.0,66588.0,K-12 School,K-12 School,66588.0,,,,,,0.0,0.0,0.0,0.0,2104286.0,0.0,False,Missing Data,,0.22,0
144,2016,Hotel,1007 First Ave.,Seattle,WA,98104.0,1974600035,DOWNTOWN,47.6048,-122.3368,1904.0,1.0,5.0,190980,0.0,190980.0,"Hotel, Parking",Hotel,190980.0,Parking,19051.0,,,98.0,34.09999847,84.0,6505995.0,0.0,4402910.0,2103084.0,False,Compliant,,0.75,0
145,2016,Other,200 University Street,Seattle,WA,98111.0,1974700025,DOWNTOWN,47.60804,-122.3367,1998.0,1.0,6.0,284100,0.0,284100.0,Other - Entertainment/Public Assembly,Other - Entertainment/Public Assembly,189750.0,,,,,50.089,78.40000153,192.0,14881950.0,4311136.0,9803021.0,527343.0,False,Compliant,,1.51,1
147,2016,Hospital,5300 Tallman Ave NW,Seattle,WA,98107.0,2767703875,BALLARD,47.66737,-122.37956,1954.0,4.0,5.0,285333,0.0,285333.0,"Hospital (General Medical & Surgical), Parking",Hospital (General Medical & Surgical),302661.0,Parking,148865.0,,,14.0,157.3000031,251.8000031,47602720.0,0.0,35237205.0,32853512.0,False,Compliant,,6.98,0
148,2016,K-12 School,5601 4th Ave. N.W.,Seattle,WA,98107.0,2768000375,Ballard,47.6706,-122.36225,1991.0,1.0,2.0,55513,0.0,55513.0,K-12 School,K-12 School,59097.0,,,,,93.0,27.10000038,85.0,1598852.625,0.0,1513571.0,0.0,True,Error - Correct Default Data,,0.19,0
163,2016,Other,105 5th Ave S,Seattle,WA,98104.0,5247801465,DOWNTOWN,47.60112,-122.32785,2006.0,1.0,4.0,61156,0.0,61156.0,"Office, Other",Other,42755.0,Office,29219.0,,,32.648,132.6999969,337.1000061,9550716.0,0.0,6947270.0,2416104.0,False,Compliant,,2.89,1
167,2016,Other,719 South King Street,Seattle,WA,98104.0,5247802715,DOWNTOWN,47.59809,-122.32283,1910.0,1.0,4.0,72820,13820.0,59000.0,Museum,Museum,58000.0,,,,,,36.09999847,85.19999695,2095175.25,0.0,1311669.0,698785.0,False,Compliant,,0.64,0
168,2016,Hotel,700 5th Ave N.,Seattle,WA,98109.0,5458300285,MAGNOLIA / QUEEN ANNE,47.62614,-122.3467,1996.0,1.0,4.0,162222,14200.0,148022.0,"Hotel, Parking",Hotel,113702.0,Parking,32692.0,,,76.0,70.5,151.1999969,8016521.0,0.0,4197462.0,3749499.0,False,Compliant,,1.41,0
169,2016,K-12 School,3013 S. Mt. Baker Blvd.,Seattle,WA,98144.0,5700000455,SOUTHEAST,47.57589,-122.29365,1990.0,1.0,4.0,289588,0.0,289588.0,K-12 School,K-12 School,289588.0,,,,,90.0,33.0,82.30000305,9542598.0,0.0,6449764.0,2370086.0,True,Error - Correct Default Data,,0.59,0
170,2016,University,801 E PINE ST,Seattle,WA,98122.0,6003000470,EAST,47.61495,-122.32177,1915.0,1.0,3.0,63330,0.0,63330.0,College/University,College/University,64820.0,,,,,66.3,50.70000076,116.0,3284214.5,0.0,1911064.0,1148694.0,False,Compliant,,1.17,1
172,2016,University,6000 16th Ave SW,Seattle,WA,98106.0,6171900005,DELRIDGE,47.547,-122.35307,1970.0,27.0,2.0,441071,0.0,441071.0,College/University,College/University,483000.0,,,,,48.755,85.19999695,202.6000061,41151732.0,0.0,25314575.0,12987166.0,False,Compliant,,1.96,1
173,2016,Small- and Mid-Sized Office,6901Sand Point Way NE,Seattle,WA,98115.0,6418100005,NORTHEAST,47.67828,-122.26456,2002.0,1.0,2.0,96300,0.0,96300.0,"Data Center, Office",Office,92300.0,Data Center,4944.0,,,11.641,167.3999939,471.1000061,16274449.0,0.0,13973696.0,2346137.0,False,Compliant,,2.31,1
174,2016,Other,805 S Charles St,Seattle,WA,98134.0,6834700175,GREATER DUWAMISH,47.59545,-122.32146,1950.0,1.0,1.0,67356,0.0,67356.0,"Repair Services (Vehicle, Shoe, Locksmith, etc)","Repair Services (Vehicle, Shoe, Locksmith, etc)",68359.0,,,,,29.612,118.3000031,252.1000061,8086930.5,0.0,4182001.0,3293576.0,False,Compliant,,3.03,1
175,2016,K-12 School,400 23rd Ave.,Seattle,WA,98122.0,6840701230,CENTRAL,47.60598,-122.30156,2008.0,1.0,3.0,254523,0.0,254523.0,K-12 School,K-12 School,254523.0,,,,,60.0,58.20000076,126.3000031,14810159.0,0.0,7835065.0,5732708.0,True,Error - Correct Default Data,,1.41,0
176,2016,K-12 School,9709 60th Ave. S.,Seattle,WA,98118.0,7129302300,SOUTHEAST,47.51482,-122.25864,2001.0,1.0,3.0,78804,0.0,78804.0,K-12 School,K-12 School,78804.0,,,,,92.0,34.0,79.30000305,2677620.75,0.0,1645214.0,853926.0,True,Error - Correct Default Data,,0.72,0
177,2016,K-12 School,1121 33rd Ave.,Seattle,WA,98122.0,7152200350,CENTRAL,47.61224,-122.29087,2002.0,1.0,3.0,66994,0.0,66994.0,K-12 School,K-12 School,66994.0,,,,,79.0,38.5,99.59999847,2579774.5,0.0,1824845.0,546459.0,True,Error - Correct Default Data,,0.62,0
178,2016,K-12 School,8311 Beacon Ave S,Seattle,WA,98118.0,7243500230,GREATER DUWAMISH,47.52915,-122.28904,2000.0,1.0,3.0,98357,0.0,98357.0,K-12 School,K-12 School,98357.0,,,,,88.0,38.5,81.30000305,3783580.25,0.0,1927067.0,1529064.0,True,Error - Correct Default Data,,0.96,0
179,2016,Small- and Mid-Sized Office,3800 S Othello St,Seattle,WA,98118.0,7378600265,GREATER DUWAMISH,47.53827,-122.28406,1958.0,1.0,1.0,54765,0.0,54765.0,"Office, Other",Office,25765.0,Other,25000.0,,,29.515,88.69999695,243.5,4503671.5,0.0,3569337.0,684032.0,False,Compliant,,1.12,1
180,2016,Other,3802 S Othello St,Seattle,WA,98118.0,7378600265,GREATER DUWAMISH,47.53722,-122.284,2009.0,1.0,5.0,89821,0.0,89821.0,"Food Service, Office, Other - Lodging/Residential",Other - Lodging/Residential,46483.0,Office,37938.0,Food Service,4579.0,95.581,25.0,27.89999962,2220796.5,0.0,67462.0,1882631.0,False,Compliant,,1.12,1
182,2016,University,3469 3rd Ave. W,Seattle,WA,98119.0,7443000070,MAGNOLIA / QUEEN ANNE,47.65147,-122.36122,1980.0,1.0,2.0,52611,0.0,52611.0,College/University,College/University,52611.0,,,,,45.462,83.40000153,186.1000061,4390158.0,0.0,2479273.0,1637598.0,False,Compliant,,1.98,1
183,2016,Residence Hall,500 W. Emerson,Seattle,WA,98119.0,7443000375,MAGNOLIA / QUEEN ANNE,47.65068,-122.36331,2001.0,1.0,4.0,139600,37500.0,102100.0,Residence Hall/Dormitory,Residence Hall/Dormitory,135520.0,,,,,89.0,35.40000153,74.69999695,4800620.5,0.0,2316298.0,2132284.0,False,Compliant,,0.93,0
185,2016,K-12 School,17050 30th Ave. N.E.,Seattle,WA,98125.0,2826049152,NORTH,47.70763,-122.29453,2011.0,1.0,2.0,236758,0.0,236758.0,"K-12 School, Parking",K-12 School,238550.0,Parking,0.0,,,96.0,38.90000153,84.40000153,9287467.0,0.0,4789948.0,3566039.0,False,Compliant,,0.94,0
187,2016,Other,1211 E Alder Street,Seattle,WA,98122.0,2908700085,CENTRAL,47.60462,-122.31549,1971.0,3.0,6.0,250981,0.0,250981.0,"Courthouse, Other",Other,137565.0,Courthouse,78357.0,,,58.817,65.69999695,151.8000031,14196194.0,4336524.5,8155002.0,580172.0,False,Compliant,,1.68,1
189,2016,K-12 School,144 N.W. 80th St.,Seattle,WA,98117.0,2919200635,NORTHWEST,47.68725,-122.35996,2002.0,1.0,3.0,62526,0.0,62526.0,K-12 School,K-12 School,62526.0,,,,,96.0,35.09999847,75.30000305,2192411.0,0.0,1114389.0,871706.0,True,Error - Correct Default Data,,0.86,0
338,2016,Other,1900 9th Ave.,Seattle,WA,98101.0,0660001215,DOWNTOWN,47.61598,-122.33448,2004.0,1.0,11.0,299070,68432.0,230638.0,Other,Other,250000.0,,,,,20.553,264.0,532.2999878,66000296.0,0.0,30651644.0,34685331.0,False,Compliant,,6.87,1
190,2016,Small- and Mid-Sized Office,7343 E Marginal Way S,Seattle,WA,98108.0,2924049043,GREATER DUWAMISH,47.536,-122.31768,2007.0,1.0,3.0,64015,0.0,64015.0,"Non-Refrigerated Warehouse, Office, Other - Services",Office,30000.0,Non-Refrigerated Warehouse,15000.0,Other - Services,9015.0,21.0,62.5,168.3999939,3375016.25,0.0,2657382.0,584696.0,False,Compliant,,0.77,0
194,2016,Retail Store,401 Northgate Way,Seattle,WA,98125.0,2926049025,NORTH,47.70759,-122.3255,1951.0,1.0,1.0,530039,0.0,530039.0,"Restaurant, Retail Store",Retail Store,505103.0,Restaurant,24936.0,,,98.0,54.29999924,121.0,28763498.0,0.0,16224529.0,11492503.0,False,Compliant,,1.36,0
195,2016,Other,10631 8th Ave NE,Seattle,WA,98125.0,2926049409,NORTH,47.7066,-122.321,1964.0,1.0,3.0,54224,0.0,54224.0,Other/Specialty Hospital,Other/Specialty Hospital,47012.0,,,,,26.445,163.1000061,321.0,7668810.0,0.0,3344827.0,3920350.0,False,Compliant,,4.27,1
197,2016,Retail Store,401 NE Northgate Way,Seattle,WA,98125.0,2926049528,NORTH,47.70619,-122.32586,1965.0,1.0,4.0,124342,0.0,124342.0,Retail Store,Retail Store,122000.0,,,,,76.0,71.59999847,222.1000061,8729918.0,0.0,8653621.0,112356.0,False,Compliant,,0.53,0
198,2016,Hospital,4800 Sand Point Way NE,Seattle,WA,98105.0,2982800005,NORTHEAST,47.66231,-122.28146,1953.0,6.0,10.0,879000,0.0,879000.0,Hospital (General Medical & Surgical),Hospital (General Medical & Surgical),879000.0,,,,,10.0,293.2000122,576.5999756,257764208.0,0.0,115641210.0,138191238.0,False,Compliant,,9.27,0
200,2016,Other,11027 Meridian N #102,Seattle,WA,98133.0,3026049024,NORTHWEST,47.70956,-122.3345,1996.0,1.0,3.0,55442,0.0,55442.0,"Financial Office, Medical Office, Parking",Financial Office,28636.0,Parking,15385.0,Medical Office,8644.0,72.0,88.90000153,197.6000061,3313397.0,0.0,1859345.0,1331883.0,False,Compliant,,1.51,0
205,2016,K-12 School,1418 N.W. 65th St.,Seattle,WA,98117.0,3050700050,BALLARD,47.67661,-122.37489,1999.0,1.0,2.0,242795,0.0,242795.0,K-12 School,K-12 School,242795.0,,,,,80.0,40.0,112.3000031,9708318.0,0.0,7859464.0,1297685.0,True,Error - Correct Default Data,,0.51,0
209,2016,Self-Storage Facility,1111 E. Madison,Seattle,WA,98122.0,3225049002,EAST,47.61233,-122.3171,1910.0,1.0,5.0,84870,0.0,84870.0,Self-Storage Facility,Self-Storage Facility,85521.0,,,,,85.103,18.89999962,31.70000076,1617801.25,0.0,482635.0,898955.0,False,Compliant,,0.6,1
211,2016,University,9600 COLLEGE WAY N,Seattle,WA,98103.0,3226049021,NORTHWEST,47.69936,-122.33401,1970.0,11.0,2.0,694072,111625.0,582447.0,College/University,College/University,667335.0,,,,,55.785,56.09999847,167.0,37410800.0,0.0,33450832.0,2440648.0,False,Compliant,,0.52,1
212,2016,K-12 School,3928 S. Graham St.,Seattle,WA,98118.0,3332501090,SOUTHEAST,47.54632,-122.28198,1952.0,1.0,2.0,173185,0.0,173185.0,K-12 School,K-12 School,173185.0,,,,,79.0,40.59999847,64.90000153,7034167.5,0.0,1800727.0,4327044.0,True,Error - Correct Default Data,,1.4,0
214,2016,K-12 School,5950 Delridge Way S.W.,Seattle,WA,98106.0,3438501230,DELRIDGE,47.54862,-122.36214,1963.0,1.0,1.0,145341,0.0,145341.0,K-12 School,K-12 School,139069.0,,,,,75.0,45.59999847,77.19999695,6337972.0,0.0,1864967.0,3634130.0,True,Error - Correct Default Data,,1.42,0
215,2016,Warehouse,5628 Airport Way South,Seattle,WA,98108.0,3466800065,GREATER DUWAMISH,47.55152,-122.31869,1904.0,1.0,4.0,114297,0.0,114297.0,Non-Refrigerated Warehouse,Non-Refrigerated Warehouse,114297.0,,,,,61.0,21.10000038,39.70000076,2415462.5,0.0,912475.0,1187623.0,False,Compliant,,0.61,0
216,2016,K-12 School,8815 Seward Park Ave S.,Seattle,WA,98118.0,3524049149,SOUTHEAST,47.52407,-122.26586,1960.0,1.0,2.0,184125,0.0,184125.0,K-12 School,K-12 School,184125.0,,,,,86.0,54.70000076,92.30000305,10067991.0,0.0,2999862.0,5800430.0,True,Error - Correct Default Data,,1.79,0
217,2016,K-12 School,9201 15th Ave. NW.,Seattle,WA,98117.0,3526039131,BALLARD,47.69675,-122.3776,1959.0,1.0,1.0,160270,0.0,160270.0,K-12 School,K-12 School,160270.0,,,,,,0.0,0.0,0.0,0.0,0.0,4318917.0,False,Missing Data,,1.43,0
220,2016,Warehouse,4786 First Ave S,Seattle,WA,98134.0,3573700006,GREATER DUWAMISH,47.55901,-122.33328,1937.0,1.0,1.0,234144,0.0,234144.0,Non-Refrigerated Warehouse,Non-Refrigerated Warehouse,234144.0,,,,,87.0,33.59999847,47.09999847,7874958.5,0.0,1316817.0,5427500.0,False,Compliant,,1.27,0
223,2016,Retail Store,2600 SW Barton St,Seattle,WA,98126.0,3624039009,DELRIDGE,47.52254,-122.36627,1966.0,1.0,1.0,64984,0.0,64984.0,Retail Store,Retail Store,65425.0,,,,,72.0,46.09999847,130.6999969,3016373.5,0.0,2613687.0,330609.0,False,Compliant,,0.55,0
224,2016,Retail Store,2600 SW Barton St,Seattle,WA,98126.0,3624039009,DELRIDGE,47.52254,-122.36627,1965.0,1.0,1.0,67745,0.0,67745.0,Retail Store,Retail Store,67782.0,,,,,37.0,141.5,227.3000031,9589728.0,0.0,2624102.0,6606121.0,False,Compliant,,5.45,0
225,2016,K-12 School,2601 SW Kenyon / 2600 SW Thistle,Seattle,WA,98126.0,3624039032,DELRIDGE,47.52915,-122.36511,2010.0,1.0,2.0,367884,0.0,367884.0,K-12 School,K-12 School,367884.0,,,,,97.0,36.09999847,85.90000153,13279344.0,0.0,8205020.0,4060496.0,False,Compliant,,0.74,0
226,2016,K-12 School,9430 30th Ave. S.W.,Seattle,WA,98126.0,3624039057,DELRIDGE,47.51778,-122.37074,1958.0,1.0,1.0,46797,0.0,46797.0,K-12 School,K-12 School,46797.0,,,,,86.0,50.90000153,91.5,2380144.5,0.0,797204.0,1278687.0,True,Error - Correct Default Data,,1.57,0
227,2016,K-12 School,2101 S. Jackson,Seattle,WA,98144.0,3646100540,CENTRAL,47.59796,-122.30415,1963.0,1.0,3.0,136188,0.0,136188.0,K-12 School,K-12 School,136188.0,,,,,,0.0,0.0,0.0,0.0,0.0,3217877.0,False,Missing Data,,1.25,0
228,2016,Other,3014 NW 67th St.,Seattle,WA,98117.0,3693901110,BALLARD,47.67767,-122.39631,1973.0,1.0,3.0,56000,0.0,56000.0,Other,Other,56000.0,,,,,70.231,37.29999924,70.69999695,2088978.125,0.0,844864.0,1006396.0,False,Compliant,,1.06,1
229,2016,K-12 School,6725 45th Ave S,Seattle,WA,98118.0,3812400550,SOUTHEAST,47.54174,-122.27691,2004.0,1.0,2.0,67371,0.0,67371.0,K-12 School,K-12 School,67371.0,,,,,92.0,33.59999847,80.09999847,2260359.75,0.0,1445339.0,683120.0,True,Error - Correct Default Data,,0.69,0
230,2016,Self-Storage Facility,6343 35th Ave SW,Seattle,WA,98126.0,3874900040,SOUTHWEST,47.54508,-122.37737,1969.0,1.0,2.0,52088,0.0,52088.0,Self-Storage Facility,Self-Storage Facility,52088.0,,,,,82.588,30.29999924,53.70000076,1576122.875,0.0,523765.0,853755.0,False,Compliant,,0.94,1
231,2016,K-12 School,1610 N. 41st St.,Seattle,WA,98103.0,4083301505,LAKE UNION,47.65708,-122.33803,2010.0,1.0,3.0,127776,0.0,127776.0,K-12 School,K-12 School,127776.0,,,,,75.0,39.09999847,103.5,4998584.5,0.0,3729930.0,1018207.0,True,Error - Correct Default Data,,0.63,0
232,2016,Hotel,1150 Fairview Ave N,Seattle,WA,98109.0,4088802955,LAKE UNION,47.62972,-122.32906,1998.0,1.0,5.0,123920,30000.0,93920.0,"Hotel, Parking, Swimming Pool",Hotel,123920.0,Parking,30000.0,Swimming Pool,0.0,79.0,78.09999847,152.1999969,9676783.0,0.0,4079217.0,5293961.0,False,Compliant,,2.5,0
233,2016,Other,860 Terry Ave N,Seattle,WA,98109.0,4088803210,LAKE UNION,47.62759,-122.33661,1900.0,1.0,1.0,50000,0.0,50000.0,Museum,Museum,43000.0,,,,,,184.6999969,373.7000122,7942537.5,0.0,3797924.0,3750882.0,False,Compliant,,4.51,0
234,2016,Warehouse,802 Roy St,Seattle,WA,98109.0,4088803530,MAGNOLIA / QUEEN ANNE,47.62591,-122.34084,1926.0,1.0,2.0,50292,0.0,50292.0,"Non-Refrigerated Warehouse, Office, Other - Services, Residence Hall/Dormitory",Non-Refrigerated Warehouse,42345.0,Residence Hall/Dormitory,5000.0,Office,4730.0,75.953,8.0,25.10000038,430473.6875,0.0,430474.0,0.0,False,Compliant,,0.06,1
235,2016,Hotel,925 Westlake Ave North,Seattle,WA,98109.0,4088803586,MAGNOLIA / QUEEN ANNE,47.62782,-122.34045,1998.0,1.0,7.0,207656,54341.0,153315.0,Hotel,Hotel,141591.0,,,,,76.0,83.0,171.3999939,11754087.0,0.0,5530787.0,5641200.0,False,Compliant,,1.63,0
237,2016,K-12 School,1320 NW 75th St.,Seattle,WA,98117.0,4240400005,BALLARD,47.68359,-122.37308,1999.0,1.0,2.0,67235,0.0,67235.0,K-12 School,K-12 School,67235.0,,,,,89.0,36.29999924,86.80000305,2443194.0,0.0,1564728.0,719406.0,True,Error - Correct Default Data,,0.73,0
238,2016,Small- and Mid-Sized Office,1300 N 97th ST,Seattle,WA,98103.0,4310701070,NORTHWEST,47.70044,-122.34136,1957.0,1.0,2.0,91130,0.0,91130.0,"Data Center, Distribution Center, Office, Other, Parking",Office,57968.0,Distribution Center,32881.0,Parking,11850.0,24.665,106.0999985,272.2000122,10005492.0,0.0,7093984.0,2378373.0,False,Compliant,,1.93,1
239,2016,K-12 School,4320 SW Myrtle,Seattle,WA,98136.0,4315700020,SOUTHWEST,47.54025,-122.3885,1991.0,1.0,3.0,58118,0.0,58118.0,K-12 School,K-12 School,59014.0,,,,,97.0,25.70000076,69.59999847,1519074.75,0.0,1158457.0,248820.0,True,Error - Correct Default Data,,0.37,0
241,2016,Hotel,2140 N. Northgate Way,Seattle,WA,98133.0,4468400005,NORTHWEST,47.70916,-122.33216,1968.0,1.0,4.0,64893,0.0,64893.0,Hotel,Hotel,64893.0,,,,,70.0,95.69999695,185.3999939,6211749.5,0.0,2620548.0,3577277.0,False,Compliant,,3.21,0
242,2016,K-12 School,504 N.E. 95th St.,Seattle,WA,98115.0,5100404840,NORTH,47.69823,-122.32126,1989.0,1.0,2.0,52792,0.0,52792.0,K-12 School,K-12 School,55480.0,,,,,,0.0,0.0,0.0,0.0,0.0,0.0,False,Missing Data,,0.0,0
243,2016,K-12 School,7201 Beacon Ave. S.,Seattle,WA,98108.0,5129000050,GREATER DUWAMISH,47.53809,-122.29591,1925.0,1.0,1.0,70762,0.0,70762.0,K-12 School,K-12 School,70762.0,,,,,87.0,58.5,76.5,4138032.75,0.0,491106.0,3115310.0,True,Error - Correct Default Data,,2.39,0
244,2016,Small- and Mid-Sized Office,76-80 S washington st,Seattle,WA,98104.0,5247800030,DOWNTOWN,47.60105,-122.33518,1900.0,1.0,3.0,44558,0.0,44558.0,"Office, Restaurant, Self-Storage Facility",Office,34416.0,Self-Storage Facility,7672.0,Restaurant,2470.0,78.0,38.59999847,103.6999969,1722053.0,0.0,1317637.0,359365.0,False,Compliant,,0.63,0
245,2016,Other,800 Occidental Ave. South,Seattle,WA,98134.0,7666204876,GREATER DUWAMISH,47.59544,-122.33159,1999.0,1.0,6.0,1585960,327680.0,1258280.0,"Other - Entertainment/Public Assembly, Parking",Other - Entertainment/Public Assembly,1585960.0,Parking,0.0,,,77.692,39.20000076,106.3000031,62160304.0,0.0,49439914.0,10317518.0,False,Compliant,,0.56,1
247,2016,Distribution Center,3613 4th Ave S,Seattle,WA,98134.0,7666205660,GREATER DUWAMISH,47.57199,-122.32811,1924.0,1.0,2.0,179161,0.0,179161.0,"Data Center, Distribution Center, Office, Other",Distribution Center,117476.0,Office,37321.0,Other,25543.0,47.064,56.29999924,167.6000061,10168523.0,0.0,8772104.0,664302.0,False,Compliant,,0.54,1
248,2016,Warehouse,3613 4th Ave S,Seattle,WA,98134.0,7666205660,GREATER DUWAMISH,47.57199,-122.32811,1965.0,1.0,2.0,58640,0.0,58640.0,"Non-Refrigerated Warehouse, Office, Other, Other - Services",Non-Refrigerated Warehouse,40831.0,Other - Services,16735.0,Office,11533.0,17.186,61.5,193.1999969,4327563.5,0.0,3928695.0,0.0,False,Compliant,,0.47,1
249,2016,Other,1250 First Avenue South,Seattle,WA,98134.0,7666206483,GREATER DUWAMISH,47.59085,-122.33354,1999.0,1.0,3.0,1172127,0.0,1172127.0,Other - Entertainment/Public Assembly,Other - Entertainment/Public Assembly,1172127.0,,,,,58.193,49.0,121.4000015,57406988.0,0.0,40622381.0,18138920.0,False,Compliant,,1.06,1
250,2016,Hotel,1046 1st Ave S,Seattle,WA,98134.0,7666206720,GREATER DUWAMISH,47.59269,-122.33372,2005.0,1.0,9.0,168449,14567.0,153882.0,"Food Service, Hotel, Parking",Hotel,135006.0,Parking,20600.0,Food Service,9216.0,64.0,89.19999695,182.6999969,12871628.0,0.0,6232233.0,6494555.0,False,Compliant,,2.31,0
257,2016,Warehouse,3235 16TH AVE SW,Seattle,WA,98134.0,7666703020,GREATER DUWAMISH,47.57507,-122.35747,1916.0,0.0,4.0,79600,0.0,79600.0,Non-Refrigerated Warehouse,Non-Refrigerated Warehouse,79600.0,,,,,34.0,30.29999924,95.09999847,2411402.25,0.0,2411402.0,0.0,False,Compliant,,0.21,0
260,2016,K-12 School,4400 Interlake Ave N,Seattle,WA,98103.0,7821200700,LAKE UNION,47.65996,-122.33962,1997.0,1.0,4.0,241066,0.0,241066.0,K-12 School,K-12 School,241066.0,,,,,79.0,36.90000153,66.19999695,8886716.0,0.0,3096316.0,4695641.0,True,Error - Correct Default Data,,1.12,0
261,2016,Large Office,1420 S Trenton,Seattle,WA,98108.0,7883608601,GREATER DUWAMISH,47.52429,-122.31234,1980.0,14.0,2.0,334368,31874.0,302494.0,"Laboratory, Non-Refrigerated Warehouse, Office, Other - Utility",Office,240984.0,Laboratory,72963.0,Other - Utility,16766.0,14.844,161.8999939,453.2999878,54136068.0,0.0,45321378.0,8145300.0,False,Compliant,,2.24,1
263,2016,Other,316 NE Thornton Place,Seattle,WA,98125.0,8632880000,NORTH,47.70281,-122.32532,2008.0,1.0,6.0,419848,335109.0,84739.0,"Fast Food Restaurant, Medical Office, Movie Theater, Parking, Retail Store",Parking,335109.0,Movie Theater,65000.0,Medical Office,13567.0,34.622,109.0,285.1000061,9238992.0,0.0,6995246.0,2139716.0,False,Compliant,,0.39,1
264,2016,Mixed Use Property,516 1st Ave W,Seattle,WA,98119.0,8681450000,MAGNOLIA / QUEEN ANNE,47.6239,-122.35756,2002.0,1.0,4.0,110785,0.0,110785.0,"Financial Office, Multifamily Housing, Parking, Retail Store, Supermarket/Grocery Store",Multifamily Housing,58563.0,Supermarket/Grocery Store,48520.0,Parking,29839.0,66.323,98.09999847,299.0,10864032.0,0.0,10139555.0,418354.0,False,Compliant,,0.84,1
265,2016,Mid-Rise Multifamily,2024 3rd Avenue,Seattle,WA,98121.0,8729690000,DOWNTOWN,47.61316,-122.34153,2003.0,1.0,7.0,116947,0.0,116947.0,"Multifamily Housing, Office, Other - Lodging/Residential, Retail Store",Multifamily Housing,81740.0,Office,27403.0,Other - Lodging/Residential,12851.0,22.104,83.09999847,178.8000031,10442680.0,0.0,5502627.0,4537494.0,False,Compliant,,2.39,1
267,2016,Hotel,721 Pine St,Seattle,WA,98101.0,6792120000,DOWNTOWN,47.61275,-122.3333,1999.0,1.0,0.0,934292,0.0,934292.0,"Hotel, Other, Parking, Restaurant, Retail Store",Hotel,495536.0,Parking,438756.0,Restaurant,49700.0,42.474,120.5,278.2000122,66502836.0,0.0,39364114.0,25683162.0,False,Compliant,,1.75,1
268,2016,Hospital,500 17th Ave,Seattle,WA,98122.0,7942600331,CENTRAL,47.60705,-122.30966,1990.0,6.0,5.0,597519,0.0,597519.0,"Hospital (General Medical & Surgical), Parking",Hospital (General Medical & Surgical),601615.0,Parking,48607.0,,,34.0,244.8000031,459.2000122,147299056.0,0.0,58754927.0,84668094.0,False,Compliant,,8.21,0
273,2016,K-12 School,1012 S.W. Trenton St.,Seattle,WA,98106.0,7972603210,DELRIDGE,47.52518,-122.34828,1999.0,1.0,1.0,71714,0.0,71714.0,K-12 School,K-12 School,71714.0,,,,,87.0,34.5,93.90000153,2470597.75,0.0,1944216.0,427142.0,True,Error - Correct Default Data,,0.51,0
274,2016,Warehouse,3600 Stone Way North,Seattle,WA,98103.0,8033700250,LAKE UNION,47.65097,-122.34227,1991.0,1.0,3.0,75397,8161.0,67236.0,"Non-Refrigerated Warehouse, Parking",Non-Refrigerated Warehouse,67236.0,Parking,8161.0,,,91.0,8.5,22.10000038,571637.5,0.0,423381.0,125800.0,False,Compliant,,0.13,0
276,2016,Hospital,325 9th Ave.,Seattle,WA,98104.0,8590900220,EAST,47.60399,-122.32377,2000.0,9.0,8.0,1158691,0.0,1158691.0,"Hospital (General Medical & Surgical), Parking",Hospital (General Medical & Surgical),1350182.0,Parking,387651.0,,,29.0,219.6999969,502.7999878,296671744.0,122575032.0,168683602.0,1832129.0,False,Compliant,,9.26,0
278,2016,Senior Care Community,802 S. Dearborn St.,Seattle,WA,98104.0,8592900105,DOWNTOWN,47.59626,-122.3218,1999.0,1.0,5.0,102796,12611.0,90185.0,"K-12 School, Medical Office, Office, Restaurant, Retail Store, Senior Care Community",Senior Care Community,55259.0,Medical Office,40091.0,K-12 School,3231.0,17.272,100.0,256.1000061,10281401.0,0.0,7428816.0,2676561.0,False,Compliant,,1.89,1
279,2016,K-12 School,3000 California Ave SW,Seattle,WA,98116.0,8702100050,SOUTHWEST,47.57678,-122.38459,2002.0,1.0,2.0,208981,0.0,208981.0,K-12 School,K-12 School,208981.0,,,,,80.0,43.20000076,95.19999695,9030149.0,0.0,4894851.0,3270002.0,True,Error - Correct Default Data,,0.99,0
280,2016,Mid-Rise Multifamily,1431 Minor Ave,Seattle,WA,98101.0,8725600350,EAST,47.6136,-122.32785,1909.0,1.0,6.0,51976,0.0,51976.0,Multifamily Housing,Multifamily Housing,50350.0,,,,,34.0,89.0,162.8999939,4480534.5,0.0,1673151.0,2516419.0,False,Compliant,,2.8,0
281,2016,K-12 School,5031 University Way NE,Seattle,WA,98105.0,8816400900,NORTHEAST,47.66568,-122.31368,1928.0,1.0,2.0,55653,0.0,55653.0,K-12 School,K-12 School,55500.0,,,,,98.0,28.79999924,30.5,1597907.25,0.0,6138.0,1371489.0,False,Compliant,,1.31,0
282,2016,Hotel,4507 Brooklyn Ave NE,Seattle,WA,98105.0,8817400055,NORTHEAST,47.66151,-122.31457,1931.0,1.0,16.0,106860,0.0,106860.0,Hotel,Hotel,106860.0,,,,,49.0,118.0999985,190.6999969,12616417.0,0.0,3561742.0,8373976.0,False,Compliant,,4.39,0
283,2016,Small- and Mid-Sized Office,12360 Lake City Way NE,Seattle,WA,98125.0,8822900465,NORTH,47.71895,-122.29475,1972.0,1.0,5.0,50759,0.0,50759.0,"Office, Restaurant",Office,47079.0,Restaurant,3680.0,,,62.0,65.40000153,174.1000061,3321734.0,0.0,2558533.0,588509.0,False,Compliant,,0.97,0
284,2016,Worship Facility,4505 16TH AVE NE,Seattle,WA,98105.0,8823902255,NORTHEAST,47.66182,-122.31113,1952.0,1.0,2.0,56772,0.0,56772.0,Worship Facility,Worship Facility,56772.0,,,,,46.0,48.70000076,87.80000305,2762805.5,0.0,975113.0,1464372.0,False,Compliant,,1.49,0
285,2016,Worship Facility,4540 15th Avenue NE,Seattle,WA,98105.0,8823902325,NORTHEAST,47.6626,-122.31164,1952.0,1.0,3.0,103000,0.0,103000.0,Worship Facility,Worship Facility,103000.0,,,,,42.0,52.29999924,102.4000015,5391782.0,0.0,2338435.0,2515995.0,False,Compliant,,1.46,0
286,2016,K-12 School,1410 N.E. 66th St.,Seattle,WA,98115.0,8826900005,NORTHEAST,47.67723,-122.31281,2006.0,1.0,3.0,269297,0.0,269297.0,K-12 School,K-12 School,269297.0,,,,,80.0,41.59999847,99.59999847,11208195.0,0.0,7203965.0,3294379.0,True,Error - Correct Default Data,,0.84,0
287,2016,K-12 School,3311 N.E. 60th,Seattle,WA,98115.0,8827900180,NORTHEAST,47.67184,-122.29221,2001.0,1.0,3.0,75174,0.0,75174.0,K-12 School,K-12 School,75174.0,,,,,77.0,40.09999847,87.59999847,3011741.75,0.0,1589543.0,1144302.0,True,Error - Correct Default Data,,0.96,0
289,2016,K-12 School,2424 7th Ave W.,Seattle,WA,98119.0,9270200005,MAGNOLIA / QUEEN ANNE,47.64052,-122.3656,2003.0,1.0,3.0,75214,0.0,75214.0,K-12 School,K-12 School,75214.0,,,,,88.0,32.70000076,82.5,2457326.25,0.0,1733685.0,600575.0,True,Error - Correct Default Data,,0.58,0
290,2016,K-12 School,3429 45th Ave. S.W.,Seattle,WA,98116.0,9278300005,SOUTHWEST,47.57298,-122.39028,2005.0,1.0,3.0,134918,0.0,134918.0,K-12 School,K-12 School,134918.0,,,,,91.0,30.60000038,79.0,4135198.25,0.0,2895105.0,926998.0,True,Error - Correct Default Data,,0.51,0
291,2016,K-12 School,2401 S. Irving St.,Seattle,WA,98144.0,9344400300,CENTRAL,47.59096,-122.29985,1991.0,1.0,2.0,64414,0.0,64414.0,K-12 School,K-12 School,65310.0,,,,,67.0,37.59999847,117.9000015,2453255.5,0.0,2295176.0,0.0,True,Error - Correct Default Data,,0.25,0
292,2016,K-12 School,520 N.E. Ravenna Blvd.,Seattle,WA,98115.0,9528103775,NORTHWEST,47.67725,-122.32232,1927.0,1.0,3.0,92437,0.0,92437.0,K-12 School,K-12 School,92437.0,,,,,78.0,57.09999847,81.90000153,5280739.0,0.0,967866.0,3658577.0,True,Error - Correct Default Data,,2.17,0
293,2016,Other,700 Union St,Seattle,WA,98101.0,2141290000,DOWNTOWN,47.61103,-122.33238,1914.0,1.0,7.0,128766,0.0,128766.0,"Office, Other, Other - Entertainment/Public Assembly",Other - Entertainment/Public Assembly,109754.0,Other,12876.0,Office,6136.0,65.455,47.0,142.3999939,6057410.0,0.0,5732650.0,324760.0,False,Compliant,,0.44,1
294,2016,Residence Hall,1118 5th Avenue,Seattle,WA,98101.0,2301950000,DOWNTOWN,47.6079,-122.33266,1913.0,1.0,9.0,107572,0.0,107572.0,"Office, Residence Hall/Dormitory, Retail Store",Residence Hall/Dormitory,63934.0,Office,27143.0,Retail Store,10568.0,76.0,57.79999924,117.0999985,5879083.0,3076446.5,2496056.0,0.0,False,Compliant,,2.37,0
295,2016,Other,1122 3rd Ave,Seattle,WA,98101.0,2302700000,DOWNTOWN,47.60699,-122.33481,1955.0,1.0,15.0,230880,0.0,230880.0,Other,Other,203000.0,,,,,12.451,303.7999878,954.0,61674856.0,0.0,62197171.0,0.0,False,Compliant,,1.88,1
296,2016,Low-Rise Multifamily,4408 Delridge Way SW,Seattle,WA,98106.0,3388120000,DELRIDGE,47.56379,-122.36301,1917.0,1.0,4.0,56617,0.0,56617.0,Multifamily Housing,Multifamily Housing,56617.0,,,,,15.0,38.59999847,88.40000153,2185550.5,0.0,1191899.0,794712.0,False,Compliant,,0.89,0
297,2016,Mid-Rise Multifamily,12730 33RD AVE NE,Seattle,WA,98125.0,3993000000,NORTH,47.72232,-122.29181,2009.0,1.0,6.0,56745,0.0,56745.0,Multifamily Housing,Multifamily Housing,43673.0,,,,,54.0,59.0,138.5,2574628.5,0.0,1555274.0,918688.0,False,Compliant,,1.05,0
299,2016,Low-Rise Multifamily,3815 S Othello St,Seattle,WA,98118.0,6434000000,GREATER DUWAMISH,47.53685,-122.28406,2003.0,1.0,4.0,67920,0.0,67920.0,"Medical Office, Multifamily Housing, Office, Retail Store",Multifamily Housing,24600.0,Medical Office,12917.0,Office,4150.0,26.19,65.19999695,199.1999969,2864132.5,0.0,2675217.0,96908.0,False,Compliant,,0.35,1
300,2016,K-12 School,5511 15th Ave. S.,Seattle,WA,98108.0,7549802085,GREATER DUWAMISH,47.55237,-122.31391,2007.0,1.0,3.0,204961,0.0,204961.0,K-12 School,K-12 School,204961.0,,,,,94.0,43.59999847,92.0,8935423.0,0.0,4528726.0,3662082.0,True,Error - Correct Default Data,,1.1,0
302,2016,Other,Readiness Center - Pier 91,Seattle,WA,98119.0,7666201147,MAGNOLIA / QUEEN ANNE,47.63965,-122.3783,1973.0,1.0,1.0,76086,0.0,76086.0,Other,Other,77810.0,,,,,62.929,46.0,90.30000305,3576720.0,0.0,1563366.0,1704198.0,False,Compliant,,1.33,1
313,2016,Medical Office,201 Elliott Avenue West,Seattle,WA,98119.0,7666202190,MAGNOLIA / QUEEN ANNE,47.61972,-122.36033,1927.0,1.0,5.0,190000,39000.0,151000.0,"Medical Office, Office",Medical Office,146741.0,Office,9805.0,,,1.0,183.5,443.0,28731502.0,0.0,18745441.0,9986059.0,False,Compliant,,3.48,0
314,2016,Hotel,2411 Alaskan Way,Seattle,WA,98121.0,7666202317,DOWNTOWN,47.6124,-122.35075,1961.0,1.0,4.0,122309,0.0,122309.0,Hotel,Hotel,122309.0,,,,,8.0,213.6000061,330.2999878,26122018.0,0.0,6322533.0,19131155.0,False,Compliant,,8.67,0
315,2016,Other,2225 Alaskan Way,Seattle,WA,98125.0,7666202325,DOWNTOWN,47.61137,-122.34947,1995.0,4.0,3.0,215476,0.0,215476.0,Other,Other,217088.0,,,,,36.567,113.3000031,251.8000031,24606366.0,0.0,13788853.0,10228916.0,False,Compliant,,2.97,1
316,2016,Hotel,2100 Alaskan Way,Seattle,WA,98121.0,7666202345,DOWNTOWN,47.61069,-122.34653,2003.0,1.0,8.0,254273,38800.0,215473.0,Hotel,Hotel,277000.0,,,,,29.0,96.90000153,205.0,26831896.0,0.0,13763542.0,12895700.0,False,Compliant,,3.07,0
317,2016,Other,1421 Alaskan Way,Seattle,WA,98101.0,7666202420,DOWNTOWN,47.60729,-122.34211,1980.0,1.0,2.0,69400,0.0,69400.0,Other - Entertainment/Public Assembly,Other - Entertainment/Public Assembly,69400.0,,,,,9.498,219.5,547.7000122,15230290.0,0.0,10534370.0,4299104.0,False,Compliant,,4.35,1
318,2016,Mixed Use Property,1001 Alaskan Way,Seattle,WA,98104.0,7666202495,DOWNTOWN,47.6041,-122.33958,1900.0,1.0,1.0,62900,0.0,62900.0,"Other, Restaurant, Retail Store",Restaurant,32494.0,Other,29793.0,Retail Store,3384.300049,39.29,165.6999969,294.6000061,10883874.0,0.0,3787933.0,6606397.0,False,Compliant,,6.0,1
319,2016,Small- and Mid-Sized Office,83 Columbia St.,Seattle,WA,98104.0,7666202580,DOWNTOWN,47.60271,-122.33557,1914.0,1.0,4.0,56500,0.0,56500.0,"Office, Retail Store",Office,33000.0,Retail Store,7000.0,,,98.0,37.5,88.09999847,1500938.5,492761.8125,887532.0,0.0,False,Compliant,,0.78,0
320,2016,Warehouse,900 MAYNARD AVE S,Seattle,WA,98134.0,7666202725,GREATER DUWAMISH,47.59486,-122.32455,2008.0,1.0,4.0,203504,0.0,203504.0,"Non-Refrigerated Warehouse, Other - Services",Non-Refrigerated Warehouse,159372.0,Other - Services,44132.0,,,72.0,19.39999962,60.90000153,3944732.0,0.0,3785282.0,0.0,False,Compliant,,0.13,0
322,2016,Large Office,2801 3rd Ave,Seattle,WA,98121.0,0656000005,DOWNTOWN,47.61757,-122.35122,1968.0,0.0,3.0,100734,26731.0,74003.0,Office,Office,100734.0,,,,,20.0,98.19999695,308.3999939,9892566.0,0.0,9788716.0,0.0,False,Compliant,,0.68,0
323,2016,Small- and Mid-Sized Office,200 Cedar Street,Seattle,WA,98121.0,0656000045,DOWNTOWN,47.61703,-122.35012,1981.0,1.0,4.0,77662,18504.0,59158.0,"Office, Parking",Office,62108.0,Parking,17570.0,,,57.0,83.19999695,230.5,5168686.5,0.0,4286102.0,721298.0,False,Compliant,,0.88,0
324,2016,Large Office,2401 Fourth Avenue,Seattle,WA,98121.0,0656000480,DOWNTOWN,47.61619,-122.34599,1978.0,1.0,12.0,234000,21790.0,212210.0,"Financial Office, Laboratory, Office, Parking",Office,173786.0,Laboratory,29865.0,Parking,25373.0,39.0,90.09999847,277.3999939,18811322.0,0.0,18246151.0,415452.0,False,Compliant,,0.64,0
326,2016,Large Office,1601 5th Avenue,Seattle,WA,98101.0,9301500000,DOWNTOWN,47.61217,-122.33694,1989.0,1.0,25.0,369996,0.0,369996.0,"Office, Parking",Office,383942.0,Parking,127192.0,,,74.0,64.5,202.5,24755086.0,0.0,24755084.0,0.0,False,Compliant,,0.47,0
327,2016,Retail Store,500 Pine Street,Seattle,WA,98101.0,0659000070,DOWNTOWN,47.61229,-122.33629,1925.0,1.0,10.0,693450,0.0,693450.0,"Office, Retail Store",Retail Store,361107.0,Office,332343.0,,,93.0,57.70000076,173.6000061,40037736.0,21230.80078,37497068.0,2544584.0,False,Compliant,,0.57,0
328,2016,Large Office,1600 7th Ave,Seattle,WA,98191.0,0659000165,DOWNTOWN,47.61316,-122.3343,1976.0,1.0,33.0,791396,0.0,791396.0,"Lifestyle Center, Office, Other, Parking, Restaurant",Office,622034.0,Parking,132465.0,Other,33110.0,89.0,62.40000153,195.8999939,42227404.0,0.0,40839637.0,538251.0,False,Compliant,,0.4,0
329,2016,Large Office,1700 Seventh,Seattle,WA,98101.0,0659000235,DOWNTOWN,47.61399,-122.33523,2000.0,1.0,23.0,747747,205076.0,542671.0,"Office, Parking, Restaurant",Office,542461.0,Parking,219045.0,Restaurant,9337.0,90.0,57.40000153,168.6000061,31693704.0,0.0,27883939.0,3101477.0,False,Compliant,,0.48,0
330,2016,Small- and Mid-Sized Office,603 Stewart Street,Seattle,WA,98101.0,0659000350,DOWNTOWN,47.61356,-122.33665,1926.0,1.0,10.0,63409,7757.0,55652.0,"Office, Retail Store",Office,45260.0,Retail Store,6187.0,,,90.0,74.40000153,140.6000061,3826622.5,2086424.75,1357845.0,0.0,False,Compliant,,2.69,0
331,2016,Large Office,1809 7th Ave,Seattle,WA,98101.0,0659000365,DOWNTOWN,47.61375,-122.33566,1930.0,1.0,17.0,204790,30000.0,174790.0,"Office, Other - Recreation, Parking, Retail Store",Office,142034.0,Other - Recreation,17070.0,Retail Store,14666.0,91.0,46.5,130.1000061,8081443.0,0.0,6736076.0,1003622.0,False,Compliant,,0.49,0
332,2016,Small- and Mid-Sized Office,414 Olive Street,Seattle,WA,98101.0,0659000385,DOWNTOWN,47.61256,-122.33808,1916.0,1.0,5.0,73399,0.0,73399.0,"Office, Retail Store",Office,51557.0,Retail Store,9976.0,,,61.0,64.90000153,203.6999969,3992167.75,0.0,3757005.0,0.0,False,Compliant,,0.36,0
333,2016,Large Office,600 Stewart Street,Seattle,WA,98101.0,0659000555,DOWNTOWN,47.61391,-122.33725,1969.0,1.0,20.0,265851,32334.0,233517.0,"Office, Parking",Office,226454.0,Parking,29214.0,,,90.0,69.5,151.8000031,15742790.0,6568832.0,8064399.0,0.0,False,Compliant,,2.12,0
334,2016,Large Office,2001 - 8th Avenue,Seattle,WA,98121.0,0659000750,DOWNTOWN,47.61578,-122.33726,2009.0,1.0,25.0,758043,228668.0,529375.0,"Office, Parking",Office,582725.0,Parking,191082.0,,,95.0,46.40000153,142.3999939,27018020.0,0.0,26131643.0,886373.0,False,Compliant,,0.3,0
335,2016,Large Office,2200 Sixth Avenue,Seattle,WA,98121.0,0660000080,DOWNTOWN,47.61641,-122.34112,1968.0,1.0,12.0,206000,0.0,206000.0,"Office, Parking",Office,161000.0,Parking,51250.0,,,91.0,56.40000153,142.5,9075988.0,2312496.75,6267781.0,0.0,False,Compliant,,1.08,0
336,2016,Large Office,1918 Eighth Avenue,Seattle,WA,98101.0,0660000650,DOWNTOWN,47.61555,-122.33582,2009.0,1.0,36.0,824887,154972.0,669915.0,"Office, Parking",Office,743562.0,Parking,161119.0,,,97.0,52.90000153,166.1999969,39360016.0,0.0,39523847.0,0.0,False,Compliant,,0.33,0
337,2016,Large Office,1800 9th Avenue,Seattle,WA,98101.0,0660001135,DOWNTOWN,47.61516,-122.33303,1990.0,1.0,16.0,480840,141600.0,339240.0,"Fitness Center/Health Club/Gym, Office, Other, Parking, Restaurant",Office,311736.0,Parking,123356.0,Fitness Center/Health Club/Gym,18239.0,94.0,54.40000153,170.1000061,18468776.0,0.0,17733276.0,133724.0,False,Compliant,,0.27,0
339,2016,Small- and Mid-Sized Office,615 2nd Avenue,Seattle,WA,98104.0,0939000130,DOWNTOWN,47.60266,-122.33332,1900.0,1.0,7.0,89550,0.0,89550.0,"Office, Retail Store, Social/Meeting Hall",Office,64712.0,Retail Store,10058.0,Social/Meeting Hall,7030.0,85.0,50.59999847,148.8000031,4135330.5,348386.8125,3554872.0,0.0,False,Compliant,,0.58,0
340,2016,Small- and Mid-Sized Office,600 First Ave,Seattle,WA,98104.0,0939000150,DOWNTOWN,47.60219,-122.33347,1900.0,1.0,6.0,89355,0.0,89355.0,"Office, Retail Store",Office,82355.0,Retail Store,7000.0,,,66.0,46.90000153,145.5,4188308.75,0.0,4116601.0,61632.0,False,Compliant,,0.36,0
341,2016,Large Office,710 2nd Avenue,Seattle,WA,98104.0,0939000260,DOWNTOWN,47.6036,-122.33288,1922.0,1.0,15.0,388934,0.0,388934.0,Office,Office,388934.0,,,,,89.0,48.79999924,145.3000031,18982748.0,1192343.75,17384553.0,0.0,False,Compliant,,0.55,0
342,2016,Large Office,821 2nd ave,Seattle,WA,98104.0,0939000335,DOWNTOWN,47.60403,-122.33497,1929.0,1.0,22.0,384302,0.0,384302.0,"Convenience Store without Gas Station, Food Service, Office",Office,348969.0,Convenience Store without Gas Station,3291.899902,Food Service,1437.0,98.0,29.60000038,93.0,10471812.0,0.0,10062435.0,0.0,False,Compliant,,0.18,0
343,2016,Large Office,801 2nd Ave Suite 1300,Seattle,WA,98104.0,0939000355,DOWNTOWN,47.6037,-122.33447,1958.0,1.0,17.0,378525,84600.0,293925.0,"Office, Parking",Office,236827.0,Parking,83311.0,Restaurant,14679.0,69.0,0.0,0.0,0.0,10921066.0,13985064.0,0.0,False,Compliant,,2.48,0
345,2016,Large Office,"999 3rd Avenue, Suite 1550",Seattle,WA,98104.0,0939000435,DOWNTOWN,47.60505,-122.33427,1983.0,1.0,47.0,1323055,0.0,1323055.0,"Office, Parking, Restaurant",Office,1011135.0,Parking,272682.0,Restaurant,37595.0,94.0,42.59999847,133.5,44683660.0,0.0,44521844.0,161812.0,False,Compliant,,0.24,0
346,2016,Large Office,1000 Second Avenue,Seattle,WA,98104.0,0939000475,DOWNTOWN,47.60567,-122.33511,1986.0,1.0,41.0,589921,129432.0,460489.0,"Office, Parking, Pre-school/Daycare",Office,470416.0,Parking,107667.0,Pre-school/Daycare,10290.0,84.0,51.20000076,160.6999969,24603420.0,0.0,24603417.0,0.0,False,Compliant,,0.29,0
347,2016,Small- and Mid-Sized Office,1015 Second Avenue,Seattle,WA,98104.0,0939000520,DOWNTOWN,47.60542,-122.33588,1950.0,1.0,6.0,91091,1392.0,89699.0,"Office, Parking",Office,89699.0,Parking,1392.0,,,94.31,21.39999962,55.0,1916413.75,480784.0,1355021.0,0.0,False,Compliant,,0.51,1
348,2016,Large Office,1101 2nd Avenue,Seattle,WA,98101.0,0942000025,DOWNTOWN,47.60581,-122.33664,1968.0,1.0,8.0,157941,62993.0,94948.0,"Office, Parking",Office,84838.0,Parking,15401.0,,,81.0,44.09999847,138.5,3743228.5,0.0,3743228.0,0.0,False,Compliant,,0.17,0
349,2016,Large Office,1191 2nd Avenue,Seattle,WA,98101.0,0942000030,DOWNTOWN,47.60614,-122.33674,1991.0,1.0,29.0,635303,197231.0,438072.0,"Office, Parking",Office,522667.0,Parking,194435.0,Convenience Store without Gas Station,6122.0,95.0,35.90000153,111.9000015,18754466.0,180731.7969,18040489.0,0.0,False,Compliant,,0.22,0
350,2016,Large Office,1100 Second Avenue,Seattle,WA,98101.0,0942000045,DOWNTOWN,47.60642,-122.33581,1958.0,1.0,6.0,172842,25920.0,146922.0,"Data Center, Office, Parking",Office,99890.0,Data Center,39336.0,Parking,25000.0,37.628,299.2000122,911.5,41650404.0,0.0,39794668.0,1604831.0,False,Non-Compliant,High outlier,2.1,1
351,2016,Large Office,1111 3rd Ave Suite 310,Seattle,WA,98101.0,0942000050,DOWNTOWN,47.60655,-122.33533,1980.0,1.0,34.0,776762,162604.0,614158.0,"Office, Parking",Office,606050.0,Parking,154947.0,,,81.0,53.79999924,168.3999939,32577050.0,0.0,32457349.0,95076.0,False,Compliant,,0.3,0
352,2016,Large Office,1110 Third Avenue,Seattle,WA,98101.0,0942000140,DOWNTOWN,47.60671,-122.33456,1972.0,1.0,14.0,186768,23775.0,162993.0,"Data Center, Office, Parking",Office,182540.0,Parking,33671.0,Data Center,240.0,95.0,53.90000153,143.1000061,9843217.0,2154977.5,7486064.0,0.0,False,Compliant,,1.17,0
353,2016,Large Office,1001 Fourth Avenue,Seattle,WA,98154.0,0942000300,DOWNTOWN,47.60615,-122.33388,1969.0,1.0,49.0,1123435,368980.0,754455.0,"Financial Office, Food Sales, Office, Other, Parking",Office,808980.0,Parking,232248.0,Other,30329.0,89.0,55.5,154.6999969,47518124.0,0.0,38378889.0,6784415.0,False,Compliant,,0.56,0
354,2016,Large Office,925 Fourth Avenue,Seattle,WA,98104.0,0942000345,DOWNTOWN,47.60549,-122.33319,2002.0,1.0,37.0,1052469,164420.0,888049.0,"Convenience Store without Gas Station, Data Center, Financial Office, Fitness Center/Health Club/Gym, Office, Other, Parking, Personal Services (Health/Beauty, Dry Cleaning, etc), Restaurant",Office,765351.0,Parking,185581.0,Financial Office,103478.0,93.0,47.20000076,148.3000031,42071712.0,0.0,41213579.0,0.0,False,Compliant,,0.27,0
355,2016,Large Office,901 Fifth Avenue,Seattle,WA,98164.0,0942000365,DOWNTOWN,47.60616,-122.33165,1973.0,1.0,42.0,617684,171500.0,446184.0,"Financial Office, Office, Parking, Retail Store",Office,581558.0,Parking,189600.0,Retail Store,18026.0,28.0,119.4000015,372.0,71568952.0,882983.5,68636822.0,0.0,False,Compliant,,0.88,0
356,2016,Large Office,810 Third Avenue,Seattle,WA,98104.0,0942000550,DOWNTOWN,47.60471,-122.33261,1907.0,1.0,8.0,201480,0.0,201480.0,"Non-Refrigerated Warehouse, Office, Retail Store",Office,161762.0,Retail Store,29094.0,Non-Refrigerated Warehouse,10624.0,91.0,47.20000076,129.3999939,9510490.0,1619966.875,7301810.0,0.0,False,Compliant,,0.87,0
357,2016,Large Office,700 Fifth Avenue,Seattle,WA,98104.0,0942000720,DOWNTOWN,47.60501,-122.32988,1990.0,1.0,63.0,1354987,159600.0,1195387.0,"Office, Parking",Office,1191115.0,Parking,159599.0,Other,18656.0,89.0,50.40000153,158.1000061,61576184.0,0.0,61576180.0,0.0,False,Compliant,,0.32,0
358,2016,Large Office,610 5th Ave,Seattle,WA,98104.0,0942000750,DOWNTOWN,47.60421,-122.32919,2001.0,1.0,14.0,310490,0.0,310490.0,"Data Center, Office, Other",Office,269284.0,Other,28394.0,Data Center,600.0,73.771,73.59999847,189.5,21960822.0,0.0,16124036.0,5045465.0,False,Compliant,,1.23,1
359,2016,Large Office,600 4th Ave,Seattle,WA,98104.0,0942000810,DOWNTOWN,47.60377,-122.32971,2003.0,1.0,8.0,199530,30660.0,168870.0,"Office, Other, Parking, Restaurant",Office,160418.0,Parking,18590.0,Other,17480.0,69.0,77.40000153,181.0,13972700.0,0.0,8738965.0,4475451.0,False,Compliant,,1.5,0
360,2016,Large Office,401 Fifth Ave.,Seattle,WA,98104.0,0942001105,DOWNTOWN,47.60249,-122.32854,2006.0,1.0,13.0,372242,52703.0,319539.0,"Office, Parking",Office,319539.0,Parking,52703.0,,,98.0,43.40000153,116.9000015,13862720.0,0.0,11248986.0,2594878.0,False,Compliant,,0.58,0
361,2016,Large Office,400 YESLER WAY,Seattle,WA,98104.0,0942001150,DOWNTOWN,47.60193,-122.32812,1909.0,1.0,7.0,114395,8296.0,106099.0,Office,Office,96582.0,,,,,99.0,30.79999924,67.80000305,2970604.25,0.0,1640689.0,1105871.0,False,Compliant,,0.61,0
363,2016,Retail Store,4326 University Way NE,Seattle,WA,98105.0,1142000075,NORTHEAST,47.66024,-122.31278,1978.0,1.0,2.0,89200,0.0,89200.0,Retail Store,Retail Store,89200.0,,,,,83.0,75.19999695,206.8000031,6707359.5,0.0,5499125.0,962811.0,False,Compliant,,1.0,0
364,2016,Large Office,4333 Brooklyn Ave,Seattle,WA,98195.0,1142000280,NORTHEAST,47.66072,-122.31466,1971.0,1.0,23.0,474546,0.0,474546.0,Office,Office,474546.0,,,,,77.0,63.20000076,198.5,29997380.0,0.0,28450433.0,0.0,False,Compliant,,0.42,0
365,2016,Other,4333 BROOKLYN AVE NE,Seattle,WA,98185.0,1142000290,NORTHEAST,47.6606,-122.31512,1969.0,1.0,5.0,36000,0.0,36000.0,Data Center,Data Center,36000.0,,,,,96.0,834.4000244,2620.0,30038490.0,0.0,30038487.0,0.0,False,Compliant,,5.82,0
366,2016,Small- and Mid-Sized Office,1107 NE 45th St,Seattle,WA,98105.0,1142000500,NORTHEAST,47.661,-122.31626,1961.0,0.0,5.0,99005,0.0,99005.0,Office,Office,79555.0,,,,,70.0,63.0,140.6999969,5008123.5,0.0,2863212.0,1865277.0,False,Compliant,,1.2,0
367,2016,Large Office,4311 11th Avenue NE,Seattle,WA,98105.0,1142000530,NORTHEAST,47.66065,-122.31689,2002.0,1.0,6.0,135051,44248.0,90803.0,"Office, Parking",Office,95943.0,Parking,42500.0,,,88.0,46.09999847,144.8999939,4426136.0,0.0,4426136.0,0.0,False,Compliant,,0.23,0
368,2016,Large Office,4300 Roosevelt Way NE,Seattle,WA,98105.0,1142000550,NORTHEAST,47.65999,-122.31741,2002.0,1.0,5.0,220649,82720.0,137929.0,"Office, Parking",Office,145754.0,Parking,90000.0,,,93.0,48.29999924,151.8000031,7046345.5,0.0,7046345.0,0.0,False,Compliant,,0.22,0
369,2016,Self-Storage Facility,1800 Terry Ave.,Seattle,WA,98101.0,0660001580,DOWNTOWN,47.61591,-122.33238,1964.0,1.0,5.0,93660,0.0,93660.0,Self-Storage Facility,Self-Storage Facility,93660.0,,,,,78.16,10.0,31.5,940359.1875,0.0,873222.0,0.0,False,Compliant,,0.07,1
370,2016,Large Office,1100 Olive Way,Seattle,WA,98101.0,0660002054,DOWNTOWN,47.61597,-122.33086,1980.0,1.0,18.0,413715,64660.0,349055.0,"Office, Parking",Office,348270.0,Parking,69634.0,,,79.0,69.59999847,218.3999939,24224888.0,0.0,24224886.0,0.0,False,Compliant,,0.41,0
371,2016,Mixed Use Property,1220 HOWELL ST,Seattle,WA,98101.0,0660002381,DOWNTOWN,47.6177,-122.3306,2000.0,1.0,11.0,381381,195621.0,185760.0,"Fitness Center/Health Club/Gym, Office, Parking",Parking,182820.0,Office,164192.0,Fitness Center/Health Club/Gym,37782.0,94.0,49.20000076,153.5,9944328.0,0.0,9671822.0,93954.0,False,Compliant,,0.19,0
372,2016,Large Office,1730 Minor Avenue,Seattle,WA,98101.0,0660002410,DOWNTOWN,47.61695,-122.32965,1988.0,1.0,20.0,497513,118744.0,378769.0,"Office, Parking",Office,367623.0,Parking,114510.0,,,65.0,0.0,0.0,0.0,0.0,26602310.0,220905.0,False,Compliant,,0.4,0
373,2016,Large Office,2101 Fourth Avenue,Seattle,WA,98121.0,0694000205,DOWNTOWN,47.61431,-122.34244,1979.0,1.0,24.0,543876,116721.0,427155.0,"Office, Parking",Office,424044.0,Parking,107300.0,,,79.0,61.70000076,193.6000061,26144226.0,0.0,25307741.0,0.0,False,Compliant,,0.32,0
374,2016,Mixed Use Property,3005 1ST AVE,Seattle,WA,98121.0,0695000135,DOWNTOWN,47.6177,-122.3545,1980.0,1.0,4.0,109347,38700.0,70647.0,"Laboratory, Office, Parking",Laboratory,42389.0,Parking,38700.0,Office,28258.0,17.996,118.5999985,346.0,8381544.5,0.0,7484659.0,733496.0,False,Compliant,,0.83,1
375,2016,Large Office,2901 Third Avenue,Seattle,WA,98121.0,0695000335,DOWNTOWN,47.6182,-122.352,1982.0,1.0,6.0,396626,124216.0,272410.0,"Office, Parking",Office,274002.0,Parking,122624.0,,,64.0,73.59999847,231.1999969,20179120.0,0.0,20361156.0,0.0,False,Compliant,,0.36,0
376,2016,Large Office,2301 5th Ave,Seattle,WA,98121.0,0696000175,DOWNTOWN,47.61598,-122.34369,2002.0,1.0,6.0,287471,83591.0,203880.0,"Office, Other, Other - Restaurant/Bar, Parking",Office,191814.0,Parking,72178.0,Other - Restaurant/Bar,5322.0,74.0,74.90000153,235.1000061,14913424.0,0.0,14913422.0,0.0,False,Compliant,,0.36,0
377,2016,Large Office,521 Wall Street,Seattle,WA,98121.0,0697000064,DOWNTOWN,47.61734,-122.34434,1947.0,1.0,3.0,192630,48512.0,144118.0,"Office, Parking",Office,146157.0,Parking,48199.0,,,94.0,38.09999847,117.0,5569686.0,0.0,5169641.0,188191.0,False,Compliant,,0.24,0
379,2016,Large Office,3101 Western Avenue,Seattle,WA,98121.0,0698000040,DOWNTOWN,47.6176,-122.35686,1984.0,1.0,8.0,253103,61986.0,191117.0,"Laboratory, Office, Other, Parking",Office,158681.0,Parking,70190.0,Other,21782.0,3.0,161.1999969,506.1000061,29949248.0,0.0,29949243.0,0.0,False,Compliant,,0.82,0
381,2016,Supermarket / Grocery Store,9999 Holman Road NW,Seattle,WA,98117.0,0767000060,NORTHWEST,47.7019,-122.36374,1956.0,1.0,1.0,60880,0.0,60880.0,Supermarket/Grocery Store,Supermarket/Grocery Store,61666.0,,,,,54.0,239.0,523.5999756,14736775.0,0.0,8125218.0,6168753.0,False,Compliant,,6.31,0
382,2016,Small- and Mid-Sized Office,524 2nd Ave,Seattle,WA,98104.0,0939000025,DOWNTOWN,47.60227,-122.33202,1900.0,1.0,5.0,50176,0.0,50176.0,"Office, Other, Restaurant",Office,50328.0,Other,8329.0,Restaurant,4253.0,77.0,46.59999847,143.1999969,2933288.75,0.0,2836654.0,96634.0,False,Compliant,,0.5,0
383,2016,Large Office,506 Second Avenue,Seattle,WA,98104.0,0939000060,DOWNTOWN,47.60198,-122.33174,1912.0,1.0,42.0,304346,0.0,304346.0,"Office, Other - Restaurant/Bar, Retail Store, Single Family Home",Office,245028.0,Retail Store,8429.0,Other - Restaurant/Bar,7518.0,72.0,94.5,189.1000061,24880988.0,1014422.375,11239744.0,11008077.0,False,Compliant,,2.44,0
384,2016,Warehouse,6901 fox ave south,Seattle,WA,98108.0,0001800113,GREATER DUWAMISH,47.54066,-122.33023,1977.0,1.0,1.0,128800,0.0,128800.0,"Non-Refrigerated Warehouse, Other",Non-Refrigerated Warehouse,119200.0,Other,9600.0,,,97.0,16.29999924,23.29999924,2098949.75,0.0,371850.0,1437252.0,False,Compliant,,0.61,0
385,2016,Large Office,1326 5th Avenue,Seattle,WA,98101.0,0002400002,DOWNTOWN,47.60932,-122.33388,1927.0,1.0,8.0,321945,0.0,321945.0,"Office, Performing Arts, Retail Store",Office,166919.0,Performing Arts,39355.0,Retail Store,19787.0,76.0,62.29999924,160.1999969,14072349.0,3700629.75,9955956.0,0.0,False,Compliant,,1.1,0
386,2016,Large Office,1200 5th avenue,Seattle,WA,98101.0,0002400002,DOWNTOWN,47.60842,-122.33305,1964.0,1.0,22.0,336330,0.0,336330.0,"Office, Other - Restaurant/Bar, Parking",Office,256299.0,Parking,66430.0,Other - Restaurant/Bar,7438.0,77.0,74.80000305,186.1999969,19730534.0,5370612.0,13134207.0,462194.0,False,Compliant,,1.58,0
387,2016,Large Office,1325 4th Avenue,Seattle,WA,98101.0,0002400002,DOWNTOWN,47.60869,-122.33588,1960.0,1.0,21.0,298426,0.0,298426.0,"Office, Other - Education, Parking",Office,286538.0,Parking,197750.0,Other - Education,11888.0,79.0,95.69999695,206.8999939,28559888.0,12760971.0,14315950.0,0.0,False,Compliant,,3.64,0
388,2016,Large Office,1301 5th Ave,Seattle,WA,98101.0,0002400003,DOWNTOWN,47.60896,-122.33481,1976.0,1.0,42.0,635824,0.0,635824.0,"Financial Office, Office, Other, Parking, Restaurant",Office,718473.0,Parking,40000.0,Restaurant,19671.0,69.0,62.90000153,197.6000061,48479988.0,0.0,48479982.0,0.0,False,Compliant,,0.53,0
389,2016,Hotel,411 University Street,Seattle,WA,98101.0,0002400003,DOWNTOWN,47.60804,-122.33391,1923.0,1.0,12.0,542305,0.0,542305.0,"Hotel, Swimming Pool",Hotel,542305.0,Swimming Pool,0.0,,,45.0,105.1999969,209.3999939,57051236.0,28438884.0,24078107.0,3968211.0,False,Compliant,,4.75,0
390,2016,Retail Store,2700 RAINIER AVE. S.,Seattle,WA,98144.0,0003600052,SOUTHEAST,47.57936,-122.29744,1980.0,1.0,2.0,291940,0.0,291940.0,"Office, Retail Store",Retail Store,191940.0,Office,100000.0,,,80.0,41.40000153,113.9000015,12080064.0,0.0,9933861.0,1754739.0,False,Compliant,,0.56,0
391,2016,Mixed Use Property,8300 Military Rd South,Seattle,WA,98108.0,0007400015,GREATER DUWAMISH,47.52871,-122.29443,1970.0,0.0,1.0,88400,0.0,88400.0,"Distribution Center, Non-Refrigerated Warehouse, Office",Non-Refrigerated Warehouse,33450.0,Office,29620.0,Distribution Center,27715.0,42.0,53.0,113.9000015,4811200.0,0.0,2530658.0,1852442.0,False,Compliant,,1.31,0
392,2016,Warehouse,910 N 137th St,Seattle,WA,98133.0,0164000120,NORTHWEST,47.72912,-122.34677,1960.0,1.0,1.0,52311,0.0,52311.0,Non-Refrigerated Warehouse,Non-Refrigerated Warehouse,51116.0,,,,,96.0,21.70000076,23.5,1109137.125,0.0,16765.0,913847.0,False,Compliant,,0.93,0
393,2016,Other,500 Yale Ave N,Seattle,WA,98109.0,0209000030,LAKE UNION,47.62323,-122.33028,2009.0,1.0,5.0,141131,69710.0,71421.0,"Office, Parking, Personal Services (Health/Beauty, Dry Cleaning, etc)",Parking,74831.0,Office,71643.0,,,88.228,43.09999847,135.1999969,3085814.0,0.0,3085813.0,0.0,False,Compliant,,0.15,1
394,2016,Large Office,501 EASTLAKE AVE E,Seattle,WA,98109.0,0209000050,LAKE UNION,47.62333,-122.3296,2001.0,1.0,5.0,176532,70067.0,106465.0,"Office, Parking",Office,103494.0,Parking,70067.0,,,60.0,56.09999847,176.1000061,5803409.0,0.0,5803409.0,0.0,False,Compliant,,0.23,0
395,2016,Warehouse,4205 9th Ave NW,Seattle,WA,98107.0,0467000050,BALLARD,47.65825,-122.3683,1973.0,1.0,1.0,52500,0.0,52500.0,"Non-Refrigerated Warehouse, Office",Non-Refrigerated Warehouse,49395.0,Office,5853.0,,,2.0,76.80000305,196.6000061,4243867.0,0.0,3064777.0,924621.0,False,Compliant,,1.34,0
396,2016,Warehouse,5301 Shilshole Ave NW,Seattle,WA,98107.0,0467000420,BALLARD,47.66587,-122.38476,1959.0,1.0,2.0,57300,0.0,57300.0,"Non-Refrigerated Warehouse, Office",Non-Refrigerated Warehouse,29001.0,Office,28299.0,,,55.0,88.90000153,161.0,5095134.5,0.0,1853914.0,2706578.0,False,Compliant,,2.73,0
398,2016,Large Office,2601 Elliott Avenue,Seattle,WA,98121.0,0653000250,DOWNTOWN,47.61429,-122.35263,1916.0,1.0,6.0,350310,0.0,350310.0,"College/University, Office, Restaurant",Office,305233.0,College/University,26900.0,Restaurant,7666.0,90.0,53.29999924,154.1999969,18102026.0,0.0,15974366.0,2127656.0,False,Compliant,,0.64,0
399,2016,Large Office,1201 3rd ave,Seattle,WA,98101.0,1974700120,DOWNTOWN,47.60723,-122.33611,1988.0,1.0,55.0,1400000,285000.0,1115000.0,"Office, Other, Parking, Restaurant",Office,994116.0,Parking,264481.0,Other,133598.0,92.0,48.5,145.3000031,55140300.0,2179487.75,49472833.0,1426840.0,False,Compliant,,0.42,0
401,2016,Hotel,1325 6th Ave,Seattle,WA,98101.0,1975700025,DOWNTOWN,47.60968,-122.33379,1930.0,1.0,21.0,305548,0.0,305548.0,Hotel,Hotel,310000.0,,,,,58.0,111.4000015,222.1999969,34527356.0,16284570.0,14578058.0,2866705.0,False,Compliant,,4.94,0
402,2016,Large Office,1420 5th Avenue,Seattle,WA,98101.0,1975700080,DOWNTOWN,47.61054,-122.33466,1989.0,1.0,46.0,1536606,512608.0,1023998.0,"Financial Office, Office, Other, Parking, Restaurant, Retail Store",Office,1002403.0,Parking,377046.0,Other,53116.0,89.0,53.59999847,162.6999969,58506844.0,0.0,53668061.0,2938070.0,False,Compliant,,0.35,0
403,2016,Large Office,500 Union St,Seattle,WA,98101.0,1975700095,DOWNTOWN,47.61003,-122.33452,1958.0,1.0,10.0,135918,0.0,135918.0,Office,Office,144570.0,,,,,91.0,46.79999924,114.0,6771618.5,2121203.0,4302353.0,0.0,False,Compliant,,1.43,0
404,2016,Retail Store,501 Pine Street,Seattle,WA,98101.0,1975700115,DOWNTOWN,47.61159,-122.33601,1914.0,1.0,4.0,79957,0.0,79957.0,"Office, Retail Store",Retail Store,35694.0,Office,29723.0,,,25.0,79.09999847,248.1999969,5171529.0,0.0,5252130.0,0.0,False,Compliant,,0.46,0
405,2016,Large Office,1511 6th Avenue,Seattle,WA,98101.0,1975700125,DOWNTOWN,47.61166,-122.33528,1921.0,1.0,4.0,127268,0.0,127268.0,"Non-Refrigerated Warehouse, Office, Retail Store",Office,62512.0,Retail Store,53971.0,Non-Refrigerated Warehouse,5000.0,71.0,63.5,171.5,7711757.5,714523.6875,6039805.0,957428.0,True,Error - Correct Default Data,,1.16,0
406,2016,Large Office,520 Pike Street,Seattle,WA,98101.0,1975700160,DOWNTOWN,47.61125,-122.33494,1983.0,1.0,29.0,500000,0.0,500000.0,"Office, Parking, Retail Store",Office,411301.0,Parking,80005.0,Retail Store,14528.0,93.0,45.20000076,141.8999939,19249572.0,0.0,18848777.0,0.0,False,Compliant,,0.26,0
408,2016,Large Office,1424 4th Ave,Seattle,WA,98101.0,1975700235,DOWNTOWN,47.61005,-122.3361,1926.0,0.0,10.0,132326,0.0,132326.0,"Office, Other, Retail Store",Office,92006.0,Other,12610.0,Retail Store,9835.0,72.0,53.70000076,163.0,6146691.5,328247.0938,5698221.0,2551.0,False,Compliant,,0.49,0
409,2016,Large Office,425 Pike Street,Seattle,WA,98101.0,1975700240,DOWNTOWN,47.61033,-122.3357,1984.0,1.0,6.0,109830,13200.0,96630.0,"Office, Other, Parking, Retail Store",Office,83485.0,Parking,13200.0,Retail Store,5000.0,45.0,87.90000153,275.8999939,7335905.5,0.0,7335905.0,0.0,False,Compliant,,0.47,0
410,2016,Hotel,1414 4th Ave,Seattle,WA,98101.0,1975700255,DOWNTOWN,47.60996,-122.33572,1973.0,0.0,19.0,332067,59280.0,272787.0,Hotel,Hotel,332067.0,,,,,6.0,114.4000015,249.3000031,37984148.0,15586014.0,19800542.0,2398995.0,False,Compliant,,4.42,0
411,2016,Large Office,1425 4th Avenue,Seattle,WA,98101.0,1975700305,DOWNTOWN,47.60991,-122.33687,1910.0,1.0,10.0,130513,0.0,130513.0,"Office, Restaurant, Retail Store",Office,87391.0,Retail Store,32264.0,Restaurant,10858.0,49.0,90.40000153,205.3999939,11792293.0,631029.0,6846996.0,4173175.0,False,Compliant,,2.44,0
412,2016,Small- and Mid-Sized Office,1417 Fourth Avenue,Seattle,WA,98101.0,1975700330,DOWNTOWN,47.60953,-122.33647,1920.0,1.0,8.0,60660,0.0,60660.0,"Office, Retail Store",Office,41958.0,Retail Store,4800.0,,,63.59,55.29999924,173.6999969,2586116.0,0.0,2586116.0,0.0,False,Compliant,,0.3,1
413,2016,Large Office,1414 3RD AVE,Seattle,WA,98101.0,1975700340,DOWNTOWN,47.60902,-122.33674,1929.0,1.0,14.0,137350,0.0,137350.0,Office,Office,124508.0,,,,,89.0,54.79999924,129.1999969,6825027.0,2258855.25,4107229.0,0.0,False,Compliant,,1.48,0
414,2016,Large Office,1411 4TH AVE,Seattle,WA,98101.0,1975700345,DOWNTOWN,47.60923,-122.33625,1929.0,1.0,15.0,151039,0.0,151039.0,Office,Office,125473.0,,,,,84.0,0.0,0.0,0.0,2850077.75,2596546.0,0.0,False,Compliant,,1.58,0
415,2016,Large Office,1501 4th Ave,Seattle,WA,98101.0,1975700390,DOWNTOWN,47.61022,-122.33745,1985.0,1.0,30.0,755000,134662.0,620338.0,"Bank Branch, Office, Other, Parking, Restaurant",Office,643083.0,Parking,126891.0,Restaurant,13422.0,72.0,80.69999695,224.3000031,53974556.0,519390.0,43199963.0,8506844.0,False,Compliant,,1.05,0
416,2016,Small- and Mid-Sized Office,1516 2nd Avenue,Seattle,WA,98101.0,1975700440,DOWNTOWN,47.60995,-122.33904,1906.0,1.0,4.0,63540,0.0,63540.0,Office,Office,56747.0,,,,,72.0,62.79999924,155.3999939,3564626.75,0.0,2428286.0,1090173.0,False,Compliant,,1.18,0
417,2016,Large Office,1511 3rd Ave,Seattle,WA,98101.0,1975700465,DOWNTOWN,47.60987,-122.33824,1927.0,1.0,10.0,130893,0.0,130893.0,"Medical Office, Office, Supermarket/Grocery Store",Office,87925.0,Supermarket/Grocery Store,27177.0,Medical Office,6644.0,80.0,58.79999924,184.8000031,7163323.5,0.0,6962072.0,0.0,False,Compliant,,0.37,0
418,2016,Mixed Use Property,110 Union Street,Seattle,WA,98101.0,1975700580,DOWNTOWN,47.60821,-122.33899,1910.0,1.0,5.0,79920,0.0,79920.0,"Office, Other, Retail Store",Office,39960.0,Retail Store,26640.0,Other,13320.0,80.689,37.29999924,117.0,2977095.25,0.0,3009464.0,0.0,False,Compliant,,0.26,1
419,2016,Mixed Use Property,1501 Pike Place,Seattle,WA,98101.0,1976200205,DOWNTOWN,47.60881,-122.34119,1908.0,1.0,4.0,137400,0.0,137400.0,"Food Sales, Multifamily Housing, Office, Other - Education, Other - Restaurant/Bar, Pre-school/Daycare, Restaurant, Retail Store, Supermarket/Grocery Store",Retail Store,44078.0,Other - Restaurant/Bar,19182.0,Multifamily Housing,14380.0,47.331,122.3000031,305.0,14879755.0,0.0,10344729.0,4595774.0,False,Compliant,,2.3,1
420,2016,Other,1506 6th Ave,Seattle,WA,98101.0,1976700045,DOWNTOWN,47.61164,-122.33446,1996.0,1.0,6.0,147852,86429.0,61423.0,"Office, Other - Restaurant/Bar, Parking, Retail Store",Parking,64821.0,Retail Store,40629.0,Other - Restaurant/Bar,13039.0,25.985,157.5,407.7000122,9671619.0,0.0,7122619.0,2548999.0,False,Compliant,,1.25,1
421,2016,Other,1501 7th Ave,Seattle,WA,98101.0,1976700055,DOWNTOWN,47.61185,-122.33421,1996.0,0.0,4.0,267335,166960.0,100375.0,"Movie Theater, Other - Restaurant/Bar, Parking",Parking,166960.0,Movie Theater,69947.0,Other - Restaurant/Bar,27400.0,52.284,75.80000305,188.0,7378420.5,0.0,5169902.0,2103253.0,False,Compliant,,0.55,1
422,2016,Large Office,601 Union St.,Seattle,WA,98101.0,1976700125,DOWNTOWN,47.61043,-122.33206,1989.0,1.0,56.0,1605578,389860.0,1215718.0,"Office, Other, Parking",Office,1314475.0,Parking,389860.0,Other,30744.0,97.0,37.90000153,113.3000031,50984500.0,915654.875,46081813.0,2520230.0,False,Compliant,,0.33,0
423,2016,Large Office,600 University Street,Seattle,WA,98101.0,1976700155,DOWNTOWN,47.60967,-122.33229,1980.0,1.0,36.0,794592,0.0,794592.0,"Office, Other, Parking",Office,748011.0,Parking,36606.0,Other,9975.0,96.0,36.09999847,111.4000015,27340878.0,0.0,26031451.0,658204.0,False,Compliant,,0.27,0
424,2016,Large Office,1200 6th Avenue,Seattle,WA,98101.0,1976700185,DOWNTOWN,47.60909,-122.33202,1971.0,1.0,21.0,456304,93204.0,363100.0,"Office, Parking",Office,342952.0,Parking,106466.0,,,74.0,59.5,187.0,20421248.0,0.0,19397322.0,0.0,False,Compliant,,0.3,0
425,2016,Large Office,101 Stewart Street,Seattle,WA,98101.0,1977200020,DOWNTOWN,47.61029,-122.34089,1986.0,1.0,12.0,115857,15140.0,100717.0,"Office, Parking, Restaurant",Office,104788.0,Parking,11844.0,Restaurant,528.0,89.0,45.20000076,141.8000031,4757299.5,0.0,4757299.0,0.0,False,Compliant,,0.29,0
426,2016,Small- and Mid-Sized Office,2200 Alaskan Way,Seattle,WA,98121.0,1977200135,DOWNTOWN,47.61116,-122.34748,1999.0,1.0,4.0,87500,17500.0,70000.0,"Office, Other",Office,70090.0,Other,1672.0,,,72.0,63.40000153,199.1000061,4549892.0,0.0,4549891.0,0.0,False,Compliant,,0.36,0
427,2016,Large Office,2211 Elliott Ave,Seattle,WA,98121.0,1977200187,DOWNTOWN,47.6117,-122.34778,1998.0,1.0,11.0,374405,184776.0,189629.0,"Laboratory, Office",Office,150969.0,Laboratory,41829.0,,,72.0,69.09999847,217.1000061,13329024.0,0.0,13329022.0,0.0,False,Compliant,,0.25,0
428,2016,Other,120 Lenora,Seattle,WA,98121.0,1977200740,DOWNTOWN,47.61252,-122.34351,1985.0,1.0,12.0,193500,38000.0,155500.0,Other,Other,146689.0,,,,,30.316,98.40000153,309.0,14436982.0,0.0,14436981.0,0.0,False,Compliant,,0.52,1
429,2016,Large Office,1932 1st Avenue,Seattle,WA,98101.0,1977200920,DOWNTOWN,47.61108,-122.34217,1923.0,1.0,11.0,102846,0.0,102846.0,"Office, Retail Store",Office,93879.0,Retail Store,7500.0,,,96.0,59.70000076,107.0,6047637.0,3480880.75,1846369.0,0.0,False,Compliant,,2.74,0
430,2016,Small- and Mid-Sized Office,2013 4th Avenue,Seattle,WA,98121.0,1977201245,DOWNTOWN,47.61304,-122.34059,1925.0,1.0,4.0,52800,0.0,52800.0,"Office, Restaurant",Office,38880.0,Restaurant,12960.0,,,83.0,48.20000076,123.6999969,2500323.75,0.0,1831932.0,597088.0,False,Compliant,,0.84,0
432,2016,Mixed Use Property,1904 Third Avenue,Seattle,WA,98101.0,1977201315,DOWNTOWN,47.61229,-122.33903,1913.0,3.0,10.0,258497,0.0,258497.0,"Data Center, Office, Parking, Restaurant, Retail Store",Parking,155000.0,Office,145594.0,Retail Store,103200.0,68.357,80.09999847,218.0,21536130.0,3902781.25,16877013.0,0.0,False,Compliant,,1.62,1
433,2016,Retail Store,300 PINE STREET,Seattle,WA,98181.0,1977201320,DOWNTOWN,47.61098,-122.33815,1929.0,1.0,8.0,861702,0.0,861702.0,"Other, Retail Store",Retail Store,509342.0,Other,380639.0,,,87.091,19.89999962,56.0,17666646.0,2927935.25,14736955.0,1753.0,False,Compliant,,0.38,1
434,2016,Other,1201 9th Ave,Seattle,WA,98101.0,1978200010,EAST,47.61,-122.32922,1999.0,1.0,5.0,206950,97400.0,109550.0,Other,Other,206950.0,,,,,31.134,92.30000305,272.7000122,19105426.0,1631750.25,17663475.0,0.0,False,Compliant,,1.2,1
435,2016,Other,705 Pike St,Seattle,WA,98101.0,1978200105,DOWNTOWN,47.61195,-122.33167,1990.0,1.0,6.0,1400000,0.0,1400000.0,"Convention Center, Parking",Convention Center,1072000.0,Parking,686750.0,,,,0.0,0.0,0.0,0.0,0.0,0.0,False,Non-Compliant,,0.0,0
436,2016,Other,909 University Street,Seattle,WA,98101.0,1978200280,EAST,47.61048,-122.32837,1988.0,1.0,9.0,46710,0.0,46710.0,Urgent Care/Clinic/Other Outpatient,Urgent Care/Clinic/Other Outpatient,46710.0,,,,,32.389,95.09999847,229.6000061,4439795.5,1447314.625,2722116.0,0.0,False,Compliant,,2.8,1
437,2016,Medical Office,901 University Street,Seattle,WA,98101.0,1978200280,EAST,47.61048,-122.32837,1945.0,1.0,3.0,266000,104000.0,162000.0,"Medical Office, Parking",Medical Office,162000.0,Parking,104000.0,,,65.0,86.5,244.8000031,14009703.0,476741.8125,11902958.0,1532059.0,False,Compliant,,0.76,0
438,2016,Medical Office,1101 Madison,Seattle,WA,98104.0,1978200625,EAST,47.60921,-122.32425,1992.0,1.0,14.0,690158,407795.0,282363.0,"Medical Office, Parking",Medical Office,270384.0,Parking,270383.0,,,58.0,78.19999695,245.6999969,21156670.0,0.0,21156669.0,0.0,False,Compliant,,0.21,0
439,2016,Mixed Use Property,140 4th Ave N,Seattle,WA,98109.0,1991200150,LAKE UNION,47.61915,-122.34857,2001.0,1.0,6.0,378443,177660.0,200783.0,"Data Center, Office, Parking, Performing Arts, Restaurant, Retail Store",Parking,164332.0,Office,108781.0,Data Center,54184.0,100.0,283.7000122,874.0999756,55073120.0,0.0,53506520.0,1566594.0,False,Compliant,,1.21,0
440,2016,Mixed Use Property,100 4th Ave N,Seattle,WA,98109.0,1991200170,LAKE UNION,47.61915,-122.34857,2001.0,1.0,6.0,213834,104922.0,108912.0,"Data Center, Financial Office, Office, Other, Parking, Restaurant",Parking,104922.0,Data Center,54385.0,Office,37721.0,100.0,707.2999878,2217.800049,75073888.0,0.0,74917352.0,156525.0,False,Compliant,,2.48,0
441,2016,Hotel,200 Taylor Ave N,Seattle,WA,98109.0,1991200540,LAKE UNION,47.62036,-122.34588,1979.0,1.0,5.0,109017,29409.0,79608.0,Hotel,Hotel,109017.0,,,,,34.0,89.0,205.8000031,9707963.0,0.0,5625395.0,3849350.0,False,Compliant,,2.24,0
443,2016,Large Office,300 Elliott Avenue West,Seattle,WA,98119.0,1992200170,MAGNOLIA / QUEEN ANNE,47.62177,-122.36158,1981.0,1.0,5.0,275734,38452.0,237282.0,"Office, Parking",Office,228504.0,Parking,47404.0,,,77.0,71.69999695,225.0,16373232.0,0.0,16373229.0,0.0,False,Compliant,,0.41,0
444,2016,Warehouse,651 S Alaska St,Seattle,WA,98104.0,2024049016,GREATER DUWAMISH,47.56064,-122.32522,2001.0,1.0,1.0,123061,0.0,123061.0,Non-Refrigerated Warehouse,Non-Refrigerated Warehouse,123061.0,,,,,59.0,16.20000076,50.70000076,1987934.625,0.0,1987934.0,0.0,False,Compliant,,0.11,0
446,2016,Distribution Center,6000 6th Ave S,Seattle,WA,98108.0,2024049060,GREATER DUWAMISH,47.54868,-122.3255,1963.0,1.0,1.0,59090,0.0,59090.0,"Distribution Center, Office",Distribution Center,40272.0,Office,18818.0,,,45.0,53.40000153,78.90000153,3153949.5,0.0,634386.0,2121829.0,False,Compliant,,1.98,0
447,2016,Warehouse,750 S Michigan St,Seattle,WA,98108.0,2024049061,GREATER DUWAMISH,47.5471,-122.32406,1963.0,1.0,1.0,106000,0.0,106000.0,Non-Refrigerated Warehouse,Non-Refrigerated Warehouse,106001.0,,,,,93.0,7.199999809,22.60000038,763364.5,0.0,763364.0,0.0,False,Compliant,,0.05,0
449,2016,Large Office,1551 Eastlake Ave E,Seattle,WA,98102.0,2107700210,LAKE UNION,47.63349,-122.32634,1962.0,1.0,3.0,158600,38400.0,120200.0,"Laboratory, Office, Parking",Office,125779.0,Parking,32821.0,Laboratory,20000.0,19.0,126.6999969,361.6000061,18471858.0,0.0,15941028.0,2368120.0,False,Compliant,,1.49,0
451,2016,Distribution Center,660 S. Othello St.,Seattle,WA,98108.0,2136200695,GREATER DUWAMISH,47.53764,-122.3232,1960.0,1.0,1.0,119661,0.0,119661.0,Distribution Center,Distribution Center,118733.0,,,,,97.0,6.5,20.5,775864.1875,0.0,774965.0,764.0,False,Compliant,,0.05,0
452,2016,Large Office,1144 Eastlake Ave East,Seattle,WA,98109.0,2163901080,LAKE UNION,47.62958,-122.32826,2001.0,1.0,7.0,139200,44728.0,94472.0,Office,Office,82098.0,,,,,81.0,52.90000153,166.1000061,4342597.0,0.0,4342597.0,0.0,False,Compliant,,0.22,0
453,2016,Small- and Mid-Sized Office,701 Dexter Avenue North,Seattle,WA,98119.0,2249000245,MAGNOLIA / QUEEN ANNE,47.62566,-122.34287,1984.0,1.0,6.0,95721,33921.0,61800.0,"Office, Parking",Office,95721.0,Parking,31746.0,,,95.0,33.0,103.5,3155171.75,0.0,3063504.0,0.0,False,Compliant,,0.22,0
456,2016,Large Office,1100 Dexter Avenue North,Seattle,WA,98109.0,2249500490,MAGNOLIA / QUEEN ANNE,47.62929,-122.34194,1996.0,2.0,5.0,213283,115228.0,98055.0,"Office, Parking",Office,105563.0,Parking,0.0,,,83.0,53.59999847,168.3999939,5661689.5,0.0,5661689.0,0.0,False,Compliant,,0.19,0
457,2016,Large Office,1441 N 34TH ST,Seattle,WA,98103.0,2264501110,LAKE UNION,47.64776,-122.33924,2001.0,1.0,3.0,103697,47656.0,56041.0,Office,Office,63199.0,,,,,7.0,184.6999969,356.1000061,11672252.0,0.0,4904243.0,6415592.0,False,Compliant,,3.62,0
458,2016,Small- and Mid-Sized Office,155 NE 100th Street,Seattle,WA,98125.0,2434900010,NORTH,47.70105,-122.32659,1974.0,1.0,5.0,74880,0.0,74880.0,"Office, Parking",Office,71751.0,Parking,0.0,,,56.0,77.09999847,242.1000061,5531460.0,0.0,5134607.0,0.0,False,Compliant,,0.48,0
459,2016,Small- and Mid-Sized Office,9725 3rd Avenue,Seattle,WA,98115.0,2434900020,NORTH,47.69999,-122.32663,1979.0,1.0,6.0,88774,0.0,88774.0,"Office, Parking",Office,85339.0,Parking,0.0,,,53.0,74.40000153,233.8000031,6353294.0,0.0,6029121.0,0.0,False,Compliant,,0.47,0
460,2016,Large Office,9709 3rd Ave NE,Seattle,WA,98115.0,2434900030,NORTH,47.69917,-122.3268,1983.0,1.0,5.0,122250,0.0,122250.0,"Adult Education, Bank Branch, Office, Parking",Office,91281.0,Adult Education,30177.0,Bank Branch,5931.0,93.0,43.5,136.3999939,5535626.0,0.0,5535625.0,0.0,False,Compliant,,0.32,0
461,2016,Small- and Mid-Sized Office,9750 3rd Ave NE,Seattle,WA,98115.0,2434900100,NORTH,47.70063,-122.32487,1979.0,1.0,4.0,53730,0.0,53730.0,"Office, Parking",Office,53730.0,Parking,0.0,,,20.0,88.30000305,277.2000122,4742869.0,0.0,4742869.0,0.0,False,Compliant,,0.62,0
462,2016,Small- and Mid-Sized Office,4045 Delridge Way,Seattle,WA,98101.0,2444600005,DELRIDGE,47.5671,-122.36416,1960.0,1.0,3.0,55593,0.0,55593.0,Office,Office,55593.0,,,,,55.0,79.40000153,190.1999969,4414587.0,0.0,2842549.0,1382323.0,False,Compliant,,1.68,0
463,2016,Large Office,425 Pontius Ave N,Seattle,WA,98109.0,2467400315,LAKE UNION,47.62269,-122.33224,1982.0,1.0,4.0,134056,60960.0,73096.0,"Office, Parking",Office,72066.0,Parking,59137.0,,,54.0,68.0,213.5,4899096.0,0.0,4695138.0,0.0,False,Compliant,,0.24,0
464,2016,Retail Store,4401 4th Ave South,Seattle,WA,98199.0,2617650020,GREATER DUWAMISH,47.5653,-122.33076,2005.0,1.0,1.0,158415,0.0,158415.0,Retail Store,Retail Store,158415.0,,,,,25.0,147.0,364.5,23293664.0,0.0,15927634.0,6466780.0,False,Compliant,,2.87,0
465,2016,Large Office,1000 Denny Way,Seattle,WA,98109.0,2693100010,LAKE UNION,47.61907,-122.33651,1929.0,1.0,8.0,287819,0.0,287819.0,"Data Center, Office, Other, Restaurant",Office,155985.0,Data Center,88350.0,Other,15630.0,46.97,174.6000061,545.9000244,48037000.0,0.0,48155040.0,251511.0,False,Compliant,,1.21,1
466,2016,Other,1100 9th Avenue,Seattle,WA,98101.0,1979200225,EAST,47.60953,-122.32793,1975.0,1.0,8.0,158738,0.0,158738.0,Urgent Care/Clinic/Other Outpatient,Urgent Care/Clinic/Other Outpatient,158738.0,,,,,,385.6000061,1001.0,61214744.0,5650343.5,46528618.0,9571816.0,False,Compliant,,7.99,0
492,2016,Small- and Mid-Sized Office,201 Queen Anne Ave N,Seattle,WA,98109.0,1989201010,MAGNOLIA / QUEEN ANNE,47.62003,-122.35706,1985.0,1.0,4.0,86995,28800.0,58195.0,"Office, Parking",Office,58195.0,Parking,28800.0,,,81.0,51.90000153,162.8000031,3018140.75,0.0,2991674.0,0.0,False,Compliant,,0.24,0
467,2016,Retail Store,915 NW 45th Street,Seattle,WA,98107.0,1982202070,BALLARD,47.66057,-122.36857,1999.0,1.0,1.0,164437,0.0,164437.0,"Parking, Retail Store, Supermarket/Grocery Store",Retail Store,102653.0,Supermarket/Grocery Store,74102.0,Parking,0.0,62.0,107.6999969,278.0,19031574.0,0.0,14099499.0,4290843.0,False,Compliant,,1.98,0
468,2016,Large Office,535 Terry Ave. North,Seattle,WA,98109.0,1983200150,LAKE UNION,47.62402,-122.33755,2009.0,1.0,5.0,184482,66234.0,118248.0,"Office, Other, Parking",Office,118016.0,Parking,66234.0,Other,1595.0,95.0,49.09999847,153.6000061,5869476.5,0.0,5651060.0,20195.0,False,Compliant,,0.22,0
469,2016,Laboratory,960 Republican St.,Seattle,WA,98109.0,1983200160,LAKE UNION,47.62348,-122.33743,1928.0,1.0,3.0,55200,0.0,55200.0,"Data Center, Laboratory",Laboratory,54880.0,Data Center,320.0,,,10.281,218.6999969,509.0,12072969.0,0.0,7500378.0,4093742.0,False,Compliant,,4.89,1
470,2016,Laboratory,401 TERRY AVE N,Seattle,WA,98109.0,1983200200,LAKE UNION,47.62254,-122.33753,2003.0,1.0,4.0,241159,111793.0,129366.0,Laboratory,Laboratory,176171.0,,,,,13.36,197.1999969,449.0,34746128.0,0.0,20388923.0,13324952.0,False,Compliant,,3.52,1
471,2016,Large Office,428 Westlake Avenue N.,Seattle,WA,98109.0,1983200245,LAKE UNION,47.62286,-122.33804,2004.0,1.0,6.0,139282,52582.0,86700.0,"Financial Office, Food Service, Office, Other, Parking",Office,79384.0,Parking,52582.0,Financial Office,3027.0,96.0,37.29999924,117.3000031,3238216.0,0.0,3238216.0,0.0,False,Compliant,,0.16,0
473,2016,Large Office,500 Boren Ave. N.,Seattle,WA,98109.0,1983200585,LAKE UNION,47.62383,-122.3356,2009.0,1.0,5.0,271071,98700.0,172371.0,"Medical Office, Office, Parking",Office,168132.0,Parking,96918.0,Medical Office,16862.0,96.0,43.0,133.3000031,7960023.0,0.0,7695280.0,156054.0,False,Compliant,,0.23,0
474,2016,Warehouse,700 Fairview Ave N,Seattle,WA,98109.0,1984200035,LAKE UNION,47.62572,-122.33389,1914.0,1.0,5.0,127800,0.0,127800.0,Non-Refrigerated Warehouse,Non-Refrigerated Warehouse,127800.0,,,,,56.0,22.0,64.69999695,2811924.5,0.0,2545590.0,221900.0,False,Compliant,,0.23,0
475,2016,Large Office,1100 Fairview Ave No.,Seattle,WA,98109.0,1984200135,LAKE UNION,47.62855,-122.33035,2002.0,1.0,5.0,560516,206597.0,353919.0,"Office, Parking",Office,372503.0,Parking,189133.0,,,71.0,81.59999847,200.6000061,30401640.0,0.0,20922584.0,9160910.0,False,Compliant,,1.13,0
476,2016,Large Office,823 Yale Ave N.,Seattle,WA,98109.0,1984200185,LAKE UNION,47.62621,-122.33128,2001.0,1.0,6.0,226592,95000.0,131592.0,"Office, Parking",Office,131592.0,Parking,83178.0,,,49.0,89.80000305,278.0,11812678.0,0.0,11719809.0,243618.0,False,Compliant,,0.42,0
477,2016,Other,1100 Fairview Ave N,Seattle,WA,98109.0,1984200455,LAKE UNION,47.62855,-122.33035,1997.0,1.0,5.0,535947,0.0,535947.0,"Other, Parking",Other,535947.0,Parking,103983.0,,,29.489,255.8000031,515.5999756,137106112.0,0.0,64627449.0,66746425.0,False,Compliant,,7.45,1
480,2016,Mixed Use Property,307 Westlake Ave. N.,Seattle,WA,98109.0,1986200135,LAKE UNION,47.62121,-122.33885,2003.0,1.0,5.0,159700,50654.0,109046.0,"Office, Other, Parking, Retail Store",Other,72407.0,Parking,49314.0,Office,37406.0,14.756,275.1000061,655.5,31915486.0,0.0,20355803.0,11015812.0,False,Compliant,,4.55,1
481,2016,Large Office,321 Terry Ave. N.,Seattle,WA,98109.0,1986200185,LAKE UNION,47.62137,-122.33744,2006.0,1.0,4.0,209816,73673.0,136143.0,"Fitness Center/Health Club/Gym, Office, Parking, Restaurant",Office,113803.0,Parking,79091.0,Fitness Center/Health Club/Gym,15803.0,97.0,51.0,135.1999969,6917478.5,0.0,5303806.0,1613672.0,False,Compliant,,0.58,0
482,2016,Large Office,320 Westlake Ave. N.,Seattle,WA,98109.0,1986200215,LAKE UNION,47.62131,-122.33814,2006.0,1.0,6.0,303103,109905.0,193198.0,"Bank Branch, Office, Parking",Office,178628.0,Parking,99368.0,Bank Branch,6015.0,97.0,40.90000153,123.9000015,7554767.0,0.0,7147457.0,372009.0,False,Compliant,,0.23,0
